id,name,parent_id,type,region,area,lft,rght,distance,lat,lng,is_confirmed,is_picked,is_delivered,ward_id,district_id,province_id,full_address,group_id,created,modified,is_dnow,modified_auto
2,"Ba Đình",1,3,NULL,1,NULL,NULL,NULL,21.0337815,105.81405389999998,1,1,1,NULL,2,1,NULL,NULL,NULL,"2017-05-10 14:54:06",0,"2018-06-08 10:08:17"
3,"Hoàn Kiếm",1,3,NULL,1,NULL,NULL,NULL,21.027964,105.85101320000001,1,1,1,NULL,3,1,NULL,NULL,NULL,"2017-06-27 09:12:10",0,"2018-06-08 10:08:17"
4,"Tây Hồ",1,3,NULL,1,NULL,NULL,NULL,21.0738016,105.82315879999999,1,1,1,NULL,4,1,NULL,NULL,NULL,"2013-11-29 12:05:35",0,"2018-06-08 10:08:17"
5,"Long Biên",1,3,NULL,2,NULL,NULL,NULL,21.0386761,105.88774940000008,1,1,1,NULL,5,1,NULL,NULL,NULL,"2013-11-29 12:05:30",0,"2018-06-08 10:08:17"
6,"Cầu Giấy",1,3,NULL,1,NULL,NULL,NULL,21.0276005,105.79087200000004,1,1,1,NULL,6,1,NULL,NULL,NULL,"2013-11-29 12:05:26",0,"2018-06-08 10:08:17"
7,"Đống Đa",1,3,NULL,1,NULL,NULL,NULL,21.0134822,105.82694149999998,1,1,1,NULL,7,1,NULL,NULL,NULL,"2014-05-07 11:06:01",0,"2018-06-08 10:08:17"
8,"Hai Bà Trưng",1,3,NULL,1,NULL,NULL,NULL,21.0040872,105.85545130000003,1,1,1,NULL,8,1,NULL,NULL,NULL,"2013-11-29 12:05:13",0,"2018-06-08 10:08:17"
9,"Hoàng Mai",1,3,NULL,2,NULL,NULL,NULL,20.9713806,105.86425929999996,1,1,1,NULL,9,1,NULL,NULL,NULL,"2013-11-29 12:05:04",0,"2018-06-08 10:08:17"
10,"Thanh Xuân",1,3,NULL,1,NULL,NULL,NULL,20.9959819,105.80972440000005,1,1,1,NULL,10,1,NULL,NULL,NULL,"2017-06-27 09:12:19",0,"2018-06-08 10:08:17"
11,"Hà Đông",1,3,NULL,2,NULL,NULL,NULL,20.955835,105.75636580000003,1,1,1,NULL,11,1,NULL,NULL,NULL,"2013-11-29 12:04:51",0,"2018-06-08 10:08:17"
12,"Sơn Tây",1,7,NULL,3,NULL,NULL,NULL,21.1032279,105.49699639999994,1,1,1,NULL,12,1,NULL,NULL,NULL,"2017-10-28 10:24:46",0,"2018-06-08 10:08:17"
13,"Ba Vì",1,7,NULL,3,NULL,NULL,NULL,21.1992298,105.42321160000006,1,1,1,NULL,13,1,NULL,NULL,NULL,"2017-10-28 10:24:24",0,"2018-06-08 10:08:17"
14,"Chương Mỹ",1,7,NULL,3,NULL,NULL,NULL,20.8626516,105.66471419999993,1,1,1,NULL,14,1,NULL,NULL,NULL,"2013-11-29 12:04:27",0,"2018-06-08 10:08:17"
15,"Đan Phượng",1,7,NULL,3,NULL,NULL,NULL,21.1050845,105.67644610000002,1,1,1,NULL,15,1,NULL,NULL,NULL,"2013-11-29 12:04:19",0,"2018-06-08 10:08:17"
16,"Đông Anh",1,7,NULL,3,NULL,NULL,NULL,21.1231639,105.85251540000002,1,1,1,NULL,16,1,NULL,NULL,NULL,"2013-11-29 12:04:14",0,"2018-06-08 10:08:17"
17,"Gia Lâm",1,7,NULL,3,NULL,NULL,NULL,21.0319389,105.95823719999999,1,1,1,NULL,17,1,NULL,NULL,NULL,"2013-11-29 12:04:05",0,"2018-06-08 10:08:17"
18,"Hoài Đức",1,7,NULL,3,NULL,NULL,NULL,21.0332922,105.69991219999997,1,1,1,NULL,18,1,NULL,NULL,NULL,"2013-11-29 12:03:56",0,"2018-06-08 10:08:17"
19,"Mê Linh",1,7,NULL,3,NULL,NULL,NULL,21.1601408,105.7380511,1,1,1,NULL,19,1,NULL,NULL,NULL,"2013-11-29 12:03:49",0,"2018-06-08 10:08:17"
20,"Mỹ Đức",1,7,NULL,3,NULL,NULL,NULL,20.725768,105.71575129999997,1,1,1,NULL,20,1,NULL,NULL,NULL,"2017-10-28 10:25:00",0,"2018-06-08 10:08:17"
21,"Phú Xuyên",1,7,NULL,3,NULL,NULL,NULL,20.7280728,105.90293739999993,1,1,1,NULL,21,1,NULL,NULL,NULL,"2017-10-28 10:29:00",0,"2018-06-08 10:08:17"
22,"Phúc Thọ",1,7,NULL,3,NULL,NULL,NULL,21.1241396,105.59390659999997,1,1,1,NULL,22,1,NULL,NULL,NULL,"2017-12-01 10:24:41",0,"2018-06-08 10:08:17"
23,"Quốc Oai",1,7,NULL,3,NULL,NULL,NULL,20.9924634,105.64042540000003,1,1,1,NULL,23,1,NULL,NULL,NULL,"2017-11-20 11:52:53",0,"2018-06-08 10:08:17"
24,"Sóc Sơn",1,7,NULL,3,NULL,NULL,NULL,21.2573126,105.84802030000003,1,1,1,NULL,24,1,NULL,NULL,NULL,"2017-10-28 10:29:08",0,"2018-06-08 10:08:17"
25,"Thạch Thất",1,7,NULL,3,NULL,NULL,NULL,20.9905234,105.52518940000004,1,1,1,NULL,25,1,NULL,NULL,NULL,"2017-12-01 10:25:23",0,"2018-06-08 10:08:17"
26,"Thanh Oai",1,7,NULL,3,NULL,NULL,NULL,20.8532165,105.76885130000005,1,1,1,NULL,26,1,NULL,NULL,NULL,"2016-09-13 11:11:16",0,"2018-06-08 10:08:17"
27,"Thanh Trì",1,7,NULL,3,NULL,NULL,NULL,20.994941,105.8906859,1,1,1,NULL,27,1,NULL,NULL,NULL,"2013-11-30 14:18:14",0,"2018-06-08 10:08:17"
28,"Thường Tín",1,7,NULL,3,NULL,NULL,NULL,20.8055441,105.88385790000007,1,1,1,NULL,28,1,NULL,NULL,NULL,"2018-01-13 13:52:18",0,"2018-06-08 10:08:17"
29,"Từ Liêm",1,3,NULL,2,NULL,NULL,NULL,21.0520539,105.74685350000004,1,1,1,NULL,29,1,NULL,NULL,NULL,"2013-11-30 14:19:43",0,"2018-06-08 10:08:17"
30,"Ứng Hòa",1,7,NULL,3,NULL,NULL,NULL,20.729614,105.77820610000003,1,1,1,NULL,30,1,NULL,NULL,NULL,"2017-10-28 10:18:13",0,"2018-06-08 10:08:17"
31,"Cống Vị ",2,1,NULL,0,NULL,NULL,NULL,21.035935,105.80994989999999,1,NULL,NULL,NULL,2,1,NULL,NULL,NULL,"2013-11-30 14:21:56",0,"2018-06-08 10:08:17"
32,"Điện Biên ",2,1,NULL,0,NULL,NULL,NULL,21.0331477,105.83930439999995,1,NULL,NULL,NULL,2,1,NULL,NULL,NULL,"2013-11-30 14:22:04",0,"2018-06-08 10:08:17"
33,"Đội Cấn ",2,1,NULL,0,NULL,NULL,NULL,21.0353362,105.82389269999999,1,NULL,NULL,NULL,2,1,NULL,NULL,NULL,"2013-11-30 14:22:28",0,"2018-06-08 10:08:17"
34,"Giảng Võ ",2,1,NULL,0,NULL,NULL,NULL,21.0270609,105.8194896,1,NULL,NULL,NULL,2,1,NULL,NULL,NULL,"2013-11-30 14:23:11",0,"2018-06-08 10:08:17"
35,"Kim Mã ",2,1,NULL,0,NULL,NULL,NULL,21.0316443,105.82462659999999,1,NULL,NULL,NULL,2,1,NULL,NULL,NULL,"2013-11-30 14:23:20",0,"2018-06-08 10:08:17"
36,"Liễu Giai ",2,1,NULL,0,NULL,NULL,NULL,21.0379972,105.81875579999996,1,NULL,NULL,NULL,2,1,NULL,NULL,NULL,"2013-11-30 14:23:27",0,"2018-06-08 10:08:17"
37,"Ngọc Hà ",2,1,NULL,0,NULL,NULL,NULL,21.0378157,105.82829590000006,1,NULL,NULL,NULL,2,1,NULL,NULL,NULL,"2013-11-30 14:23:35",0,"2018-06-08 10:08:17"
38,"Ngọc Khánh ",2,1,NULL,0,NULL,NULL,NULL,21.0301393,105.80994989999999,1,NULL,NULL,NULL,2,1,NULL,NULL,NULL,"2013-11-30 14:23:41",0,"2018-06-08 10:08:17"
39,"Nguyễn Trung Trực ",2,1,NULL,0,NULL,NULL,NULL,21.0417971,105.84737769999992,1,NULL,NULL,NULL,2,1,NULL,NULL,NULL,"2013-11-30 14:23:51",0,"2018-06-08 10:08:17"
40,"Phúc Xá ",2,1,NULL,0,NULL,NULL,NULL,21.0467979,105.84811160000004,1,NULL,NULL,NULL,2,1,NULL,NULL,NULL,"2013-11-30 14:23:58",0,"2018-06-08 10:08:17"
41,"Quán Thánh ",2,1,NULL,0,NULL,NULL,NULL,21.0389429,105.83930439999995,1,NULL,NULL,NULL,2,1,NULL,NULL,NULL,"2013-11-30 14:24:09",0,"2018-06-08 10:08:17"
42,"Thành Công ",2,1,NULL,0,NULL,NULL,NULL,21.020889,105.8158204,1,NULL,NULL,NULL,2,1,NULL,NULL,NULL,"2013-11-30 14:26:59",0,"2018-06-08 10:08:17"
43,"Trúc Bạch ",2,1,NULL,0,NULL,NULL,NULL,21.0452531,105.84150620000003,1,NULL,NULL,NULL,2,1,NULL,NULL,NULL,"2013-11-30 14:27:09",0,"2018-06-08 10:08:17"
44,"Vĩnh Phúc",2,1,NULL,0,NULL,NULL,NULL,21.0417308,105.80994989999999,1,NULL,NULL,NULL,2,1,NULL,NULL,NULL,"2013-11-30 14:27:18",0,"2018-06-08 10:08:17"
45,"Dịch Vọng ",6,1,NULL,0,NULL,NULL,NULL,21.0347067,105.79233939999995,1,NULL,NULL,NULL,6,1,NULL,NULL,NULL,"2013-11-30 14:27:25",0,"2018-06-08 10:08:17"
46,"Dịch Vọng Hậu ",6,1,NULL,0,NULL,NULL,NULL,21.0339527,105.78500220000001,1,NULL,NULL,NULL,6,1,NULL,NULL,NULL,"2013-11-30 14:19:56",0,"2018-06-08 10:08:17"
47,"Mai Dịch ",6,1,NULL,0,NULL,NULL,NULL,21.0395659,105.77407119999998,1,NULL,NULL,NULL,6,1,NULL,NULL,NULL,"2013-11-30 14:27:32",0,"2018-06-08 10:08:17"
51,"Trung Hoà",6,1,NULL,0,NULL,NULL,NULL,21.0101531,105.7988345,1,NULL,NULL,NULL,6,1,NULL,NULL,NULL,"2017-12-11 15:55:52",0,"2018-06-08 10:08:17"
52,"Yên Hoà",6,1,NULL,0,NULL,NULL,NULL,21.0218044,105.79087200000004,1,NULL,NULL,NULL,6,1,NULL,NULL,NULL,"2013-11-30 14:28:03",0,"2018-06-08 10:08:17"
53,"Cát Linh ",7,1,NULL,0,NULL,NULL,NULL,21.0289833,105.82976370000006,1,NULL,NULL,NULL,7,1,NULL,NULL,NULL,"2013-11-30 14:28:11",0,"2018-06-08 10:08:17"
54,"Hàng Bột ",7,1,NULL,0,NULL,NULL,NULL,21.0230486,105.83123139999998,1,NULL,NULL,NULL,7,1,NULL,NULL,NULL,"2013-11-30 14:28:27",0,"2018-06-08 10:08:17"
55,"Khâm Thiên ",7,1,NULL,0,NULL,NULL,NULL,21.019454,105.83857050000006,1,NULL,NULL,NULL,7,1,NULL,NULL,NULL,"2013-11-30 14:28:40",0,"2018-06-08 10:08:17"
56,"Khương Thượng ",7,1,NULL,0,NULL,NULL,NULL,21.0030438,105.82829590000006,1,NULL,NULL,NULL,7,1,NULL,NULL,NULL,"2013-11-30 14:28:54",0,"2018-06-08 10:08:17"
57,"Kim Liên ",7,1,NULL,0,NULL,NULL,NULL,21.0066938,105.83563479999998,1,NULL,NULL,NULL,7,1,NULL,NULL,NULL,"2013-11-30 14:29:04",0,"2018-06-08 10:08:17"
58,"Láng Hạ ",7,1,NULL,0,NULL,NULL,NULL,21.0153717,105.81288510000002,1,NULL,NULL,NULL,7,1,NULL,NULL,NULL,"2013-11-30 14:29:14",0,"2018-06-08 10:08:17"
59,"Láng Thượng ",7,1,NULL,0,NULL,NULL,NULL,21.0220022,105.80407960000002,1,NULL,NULL,NULL,7,1,NULL,NULL,NULL,"2013-11-30 14:29:25",0,"2018-06-08 10:08:17"
60,"Nam Đồng ",7,1,NULL,0,NULL,NULL,NULL,21.0143557,105.83123139999998,1,NULL,NULL,NULL,7,1,NULL,NULL,NULL,"2013-11-30 14:29:34",0,"2018-06-08 10:08:17"
61,"Ngã Tư Sở ",7,1,NULL,0,NULL,NULL,NULL,21.004722,105.82205810000005,1,NULL,NULL,NULL,7,1,NULL,NULL,NULL,"2013-11-30 14:30:23",0,"2018-06-08 10:08:17"
62,"Ô Chợ Dừa ",7,1,NULL,0,NULL,NULL,NULL,21.0200535,105.82462659999999,1,NULL,NULL,NULL,7,1,NULL,NULL,NULL,"2013-11-30 14:30:56",0,"2018-06-08 10:08:17"
63,"Phương Liên ",7,1,NULL,0,NULL,NULL,NULL,21.0123495,105.83710259999998,1,NULL,NULL,NULL,7,1,NULL,NULL,NULL,"2013-11-30 14:31:07",0,"2018-06-08 10:08:17"
64,"Phương Mai ",7,1,NULL,0,NULL,NULL,NULL,21.0012748,105.83930439999995,1,NULL,NULL,NULL,7,1,NULL,NULL,NULL,"2013-11-30 14:31:16",0,"2018-06-08 10:08:17"
66,"Quốc Tử Giám ",7,1,NULL,0,NULL,NULL,NULL,21.0272556,105.83269919999998,1,NULL,NULL,NULL,7,1,NULL,NULL,NULL,"2013-11-30 14:31:35",0,"2018-06-08 10:08:17"
67,"Thịnh Quang ",7,1,NULL,0,NULL,NULL,NULL,21.0083647,105.81802190000008,1,NULL,NULL,NULL,7,1,NULL,NULL,NULL,"2013-11-30 14:31:45",0,"2018-06-08 10:08:17"
68,"Thổ Quan ",7,1,NULL,0,NULL,NULL,NULL,21.0184234,105.83416699999998,1,NULL,NULL,NULL,7,1,NULL,NULL,NULL,"2013-11-30 14:31:55",0,"2018-06-08 10:08:17"
69,"Trung Liệt ",7,1,NULL,0,NULL,NULL,NULL,21.0108448,105.82242500000007,1,NULL,NULL,NULL,7,1,NULL,NULL,NULL,"2013-11-30 14:32:06",0,"2018-06-08 10:08:17"
70,"Trung Phụng ",7,1,NULL,0,NULL,NULL,NULL,21.0151077,105.83857050000006,1,NULL,NULL,NULL,7,1,NULL,NULL,NULL,"2013-11-30 14:32:15",0,"2018-06-08 10:08:17"
71,"Trung Tự ",7,1,NULL,0,NULL,NULL,NULL,21.0042141,105.83123139999998,1,NULL,NULL,NULL,7,1,NULL,NULL,NULL,"2013-11-30 14:32:29",0,"2018-06-08 10:08:17"
72,"Văn Chương ",7,1,NULL,0,NULL,NULL,NULL,21.022491,105.83710259999998,1,NULL,NULL,NULL,7,1,NULL,NULL,NULL,"2013-11-30 14:32:37",0,"2018-06-08 10:08:17"
73,"Văn Miếu",7,1,NULL,0,NULL,NULL,NULL,21.0265584,105.84003830000006,1,NULL,NULL,NULL,7,1,NULL,NULL,NULL,"2013-11-30 14:32:46",0,"2018-06-08 10:08:17"
74,"Biên Giang",11,1,NULL,0,NULL,NULL,NULL,20.9283162,105.72191450000003,1,NULL,NULL,NULL,11,1,NULL,NULL,NULL,"2013-11-30 14:32:56",0,"2018-06-08 10:08:17"
75,"Dương Nội",11,1,NULL,0,NULL,NULL,NULL,20.979868,105.74391939999998,1,NULL,NULL,NULL,11,1,NULL,NULL,NULL,"2013-11-30 14:33:03",0,"2018-06-08 10:08:17"
76,"Đồng Mai",11,1,NULL,0,NULL,NULL,NULL,20.9308715,105.74098520000007,1,NULL,NULL,NULL,11,1,NULL,NULL,NULL,"2013-11-30 14:33:27",0,"2018-06-08 10:08:17"
77,"Hà Cầu",11,1,NULL,0,NULL,NULL,NULL,20.9636429,105.77766529999997,1,NULL,NULL,NULL,11,1,NULL,NULL,NULL,"2013-11-30 14:33:35",0,"2018-06-08 10:08:17"
78,"Kiến Hưng",11,1,NULL,0,NULL,NULL,NULL,20.9528073,105.78500220000001,1,1,NULL,NULL,11,1,NULL,NULL,NULL,"2017-06-23 11:06:38",0,"2018-06-08 10:08:17"
79,"La Khê",11,1,NULL,0,NULL,NULL,NULL,20.9666149,105.76152520000005,1,NULL,NULL,NULL,11,1,NULL,NULL,NULL,"2013-11-30 14:34:31",0,"2018-06-08 10:08:17"
80,"Mỗ Lao",11,1,NULL,0,NULL,NULL,NULL,20.9833749,105.78353479999998,1,NULL,NULL,NULL,11,1,NULL,NULL,NULL,"2013-11-30 14:34:40",0,"2018-06-08 10:08:17"
81,"Nguyễn Trãi",11,2,NULL,0,NULL,NULL,NULL,20.9699557,105.77986639999995,1,1,1,NULL,11,1,NULL,NULL,NULL,"2017-06-29 14:34:21",0,"2018-06-08 10:08:17"
82,"Phú La",11,1,NULL,0,NULL,NULL,NULL,20.9560561,105.76592690000007,1,NULL,NULL,NULL,11,1,NULL,NULL,NULL,"2017-07-17 16:07:24",0,"2018-06-08 10:08:17"
83,"Phú Lãm",11,1,NULL,0,NULL,NULL,NULL,20.9426712,105.75418919999993,1,NULL,NULL,NULL,11,1,NULL,NULL,NULL,"2013-11-30 14:35:06",0,"2018-06-08 10:08:17"
84,"Phú Lương",11,1,NULL,0,NULL,NULL,NULL,20.9428762,105.76739420000001,1,1,NULL,NULL,11,1,NULL,NULL,NULL,"2017-08-30 23:30:35",0,"2018-06-08 10:08:17"
85,"Phúc La",11,1,NULL,0,NULL,NULL,NULL,20.9654323,105.78940450000005,1,NULL,NULL,NULL,11,1,NULL,NULL,NULL,"2013-11-30 14:35:21",0,"2018-06-08 10:08:17"
86,"Quang Trung",11,1,NULL,0,NULL,NULL,NULL,20.9710639,105.7681278,1,NULL,NULL,NULL,11,1,NULL,NULL,NULL,"2013-11-30 14:35:29",0,"2018-06-08 10:08:17"
87,"Văn Khê",11,1,NULL,0,NULL,NULL,NULL,20.9745671,105.76432599999998,1,NULL,NULL,NULL,11,1,NULL,NULL,NULL,"2013-11-30 14:35:36",0,"2018-06-08 10:08:17"
88,"Văn Quán",11,1,NULL,0,NULL,NULL,NULL,20.9796446,105.79233939999995,1,NULL,NULL,NULL,11,1,NULL,NULL,NULL,"2013-11-30 14:35:44",0,"2018-06-08 10:08:17"
89,"Vạn Phúc",11,1,NULL,0,NULL,NULL,NULL,20.9786876,105.771796,1,1,NULL,NULL,11,1,NULL,NULL,NULL,"2017-08-17 17:03:40",0,"2018-06-08 10:08:17"
90,"Yên Nghĩa",11,1,NULL,0,NULL,NULL,NULL,20.9540586,105.74098520000007,1,NULL,NULL,NULL,11,1,NULL,NULL,NULL,"2013-11-30 14:36:00",0,"2018-06-08 10:08:17"
91,"Yết Kiêu",11,1,NULL,0,NULL,NULL,NULL,20.97458,105.77693169999998,1,NULL,NULL,NULL,11,1,NULL,NULL,NULL,"2013-11-30 14:36:06",0,"2018-06-08 10:08:17"
92,"Bạch Đằng",8,1,NULL,0,NULL,NULL,NULL,21.0132507,105.86572739999997,1,NULL,NULL,NULL,8,1,NULL,NULL,NULL,"2013-11-30 14:36:13",0,"2018-06-08 10:08:17"
93,"Bách Khoa",8,1,NULL,0,NULL,NULL,NULL,21.0056183,105.84334749999994,1,1,NULL,NULL,8,1,NULL,NULL,NULL,"2017-07-07 14:52:02",0,"2018-06-08 10:08:17"
94,"Bạch Mai",8,1,NULL,0,NULL,NULL,NULL,21.0008143,105.85178139999994,1,NULL,NULL,NULL,8,1,NULL,NULL,NULL,"2013-11-30 14:36:26",0,"2018-06-08 10:08:17"
95,"Bùi Thị Xuân",8,1,NULL,0,NULL,NULL,NULL,21.0150437,105.85068049999995,1,NULL,NULL,NULL,8,1,NULL,NULL,NULL,"2013-11-30 14:36:33",0,"2018-06-08 10:08:17"
96,"Cầu Dền",8,1,NULL,0,NULL,NULL,NULL,21.0067485,105.85031349999997,1,NULL,NULL,NULL,8,1,NULL,NULL,NULL,"2013-11-30 14:36:41",0,"2018-06-08 10:08:17"
97,"Đống Mác",8,1,NULL,0,NULL,NULL,NULL,21.0112392,105.86022230000003,1,NULL,NULL,NULL,8,1,NULL,NULL,NULL,"2013-11-30 14:36:48",0,"2018-06-08 10:08:17"
98,"Đồng Nhân",8,1,NULL,0,NULL,NULL,NULL,21.0132762,105.85526189999996,1,NULL,NULL,NULL,8,1,NULL,NULL,NULL,"2014-01-09 13:49:39",0,"2018-06-08 10:08:17"
99,"Đồng Tâm",8,1,NULL,0,NULL,NULL,NULL,20.9986139,105.84444189999999,1,NULL,NULL,NULL,8,1,NULL,NULL,NULL,"2013-11-30 14:37:04",0,"2018-06-08 10:08:17"
100,"Lê Đại Hành",8,1,NULL,0,NULL,NULL,NULL,21.0123071,105.84517579999999,1,NULL,NULL,NULL,8,1,NULL,NULL,NULL,"2013-11-30 14:37:12",0,"2018-06-08 10:08:17"
101,"Minh Khai",8,2,NULL,0,NULL,NULL,NULL,20.9959104,105.85765330000004,1,1,1,NULL,8,1,NULL,NULL,NULL,"2014-03-20 12:42:30",0,"2018-06-08 10:08:17"
102,"Ngô Thì Nhậm",8,1,NULL,0,NULL,NULL,NULL,21.0166103,105.85324939999998,1,NULL,NULL,NULL,8,1,NULL,NULL,NULL,"2013-11-30 14:37:35",0,"2018-06-08 10:08:17"
103,"Nguyễn Du",8,1,NULL,0,NULL,NULL,NULL,21.0187567,105.84590980000007,1,NULL,NULL,NULL,8,1,NULL,NULL,NULL,"2013-11-30 14:37:54",0,"2018-06-08 10:08:17"
104,"Phạm Đình Hổ",8,1,NULL,0,NULL,NULL,NULL,21.0161916,105.85765330000004,1,NULL,NULL,NULL,8,1,NULL,NULL,NULL,"2013-11-30 14:38:10",0,"2018-06-08 10:08:17"
105,"Phố Huế",8,1,NULL,0,NULL,NULL,NULL,21.0108156,105.85324939999998,1,NULL,NULL,NULL,8,1,NULL,NULL,NULL,"2013-11-30 14:38:22",0,"2018-06-08 10:08:17"
106,"Quỳnh Lôi",8,2,NULL,0,NULL,NULL,NULL,21.0003958,105.85618529999999,1,1,1,NULL,8,1,NULL,NULL,NULL,"2013-12-18 09:55:49",0,"2018-06-08 10:08:17"
107,"Quỳnh Mai",8,2,NULL,0,NULL,NULL,NULL,21.0011245,105.86095649999993,1,1,1,NULL,8,1,NULL,NULL,NULL,"2013-12-18 09:55:09",0,"2018-06-08 10:08:17"
108,"Thanh Lương",8,1,NULL,0,NULL,NULL,NULL,21.0068975,105.87159969999993,1,NULL,NULL,NULL,8,1,NULL,NULL,NULL,"2013-11-30 14:38:48",0,"2018-06-08 10:08:17"
109,"Thanh Nhàn",8,1,NULL,0,NULL,NULL,NULL,21.0053964,105.85691930000007,1,NULL,NULL,NULL,8,1,NULL,NULL,NULL,"2013-11-30 14:38:57",0,"2018-06-08 10:08:17"
110,"Trương Định",8,1,NULL,0,NULL,NULL,NULL,20.9946437,105.84811160000004,1,NULL,NULL,NULL,8,1,NULL,NULL,NULL,"2013-11-30 14:39:05",0,"2018-06-08 10:08:17"
111,"Vĩnh Tuy",8,1,NULL,0,NULL,NULL,NULL,20.9984853,105.86866350000003,1,NULL,NULL,NULL,8,1,NULL,NULL,NULL,"2013-11-30 14:39:12",0,"2018-06-08 10:08:17"
112,"Nguyễn Lương Bằng",7,2,NULL,0,NULL,NULL,NULL,21.0150833,105.8278441,1,1,1,NULL,7,1,NULL,NULL,NULL,"2015-07-28 11:39:37",0,"2018-06-08 10:08:17"
113,"Phường Nam Đồng",7,1,NULL,0,NULL,NULL,NULL,21.0143557,105.83123139999998,1,NULL,NULL,NULL,7,1,NULL,NULL,NULL,"2013-11-30 14:39:27",0,"2018-06-08 10:08:17"
114,"Kim Ngưu",8,2,NULL,0,NULL,NULL,NULL,21.0024973,105.86134979999997,1,1,1,NULL,8,1,NULL,NULL,NULL,"2013-11-30 14:39:35",0,"2018-06-08 10:08:17"
115,"Triệu Việt Vương",8,2,NULL,0,NULL,NULL,NULL,21.0151433,105.85037869999996,1,1,1,NULL,8,1,NULL,NULL,NULL,"2013-11-30 14:39:43",0,"2018-06-08 10:08:17"
116,"Đại La",9,2,NULL,0,NULL,NULL,NULL,20.9930118,105.85021899999992,1,1,1,NULL,9,1,NULL,NULL,NULL,"2013-11-30 14:39:53",0,"2018-06-08 10:08:17"
117,"Giải Phóng",9,2,NULL,0,NULL,NULL,NULL,20.9869604,105.84116670000003,1,1,1,NULL,9,1,NULL,NULL,NULL,"2017-06-28 16:01:49",0,"2018-06-08 10:08:17"
118,"Ngụy Như Kon Tum",7,2,NULL,0,NULL,NULL,NULL,21.0005603,105.8029176,1,NULL,NULL,NULL,7,1,NULL,NULL,NULL,"2017-11-21 17:53:23",0,"2018-06-08 10:08:17"
119,"Yên Phụ",2,2,NULL,0,NULL,NULL,NULL,21.0423797,105.84821020000004,1,1,1,NULL,2,1,NULL,NULL,NULL,"2013-11-30 14:40:15",0,"2018-06-08 10:08:17"
121,"Nhật Tân",4,1,NULL,0,NULL,NULL,NULL,21.0764202,105.82609430000002,1,NULL,NULL,NULL,4,1,NULL,NULL,NULL,"2013-11-30 14:41:19",0,"2018-06-08 10:08:17"
122,"Âu Cơ",4,2,NULL,0,NULL,NULL,NULL,21.0699841,105.82613689999994,1,1,1,NULL,4,1,NULL,NULL,NULL,"2013-11-30 14:41:28",0,"2018-06-08 10:08:17"
124,"Đê La Thành",7,2,NULL,0,NULL,NULL,NULL,21.0186286,105.83041370000001,1,1,1,NULL,7,1,NULL,NULL,NULL,"2014-09-11 13:02:51",0,"2018-06-08 10:08:17"
125,"Nguyễn Ngọc Vũ",6,2,NULL,0,NULL,NULL,NULL,21.0125657,105.80736679999995,1,1,1,NULL,6,1,NULL,NULL,NULL,"2013-11-30 14:41:44",0,"2018-06-08 10:08:17"
127,"Quận 1",126,3,NULL,1,NULL,NULL,NULL,10.7756587,106.70042379999995,1,1,1,NULL,127,126,NULL,NULL,NULL,"2017-12-04 14:14:52",1,"2018-06-08 10:08:17"
128,"Quận 2",126,3,NULL,1,NULL,NULL,NULL,10.7872729,106.74981049999997,1,1,1,NULL,128,126,NULL,NULL,NULL,"2017-12-04 14:15:00",1,"2018-06-08 10:08:17"
138,"Phạm Ngọc Thạch",7,2,NULL,0,NULL,NULL,NULL,21.0091917,105.83480179999992,1,1,1,NULL,7,1,NULL,NULL,NULL,"2013-11-30 14:43:08",0,"2018-06-08 10:08:17"
139,"Hoàng Hoa Thám",3,2,NULL,0,NULL,NULL,NULL,21.039606,105.82865949999996,1,1,1,NULL,3,1,NULL,NULL,NULL,"2014-03-03 11:52:56",0,"2018-06-08 10:08:17"
140,"Đại Mỗ",29,2,NULL,0,NULL,NULL,NULL,20.9898009,105.76152520000005,1,1,1,NULL,29,1,NULL,NULL,NULL,"2013-11-30 14:43:29",0,"2018-06-08 10:08:17"
141,"Khuất Duy Tiến",10,2,NULL,0,NULL,NULL,NULL,20.995744,105.80007520000004,1,1,1,NULL,10,1,NULL,NULL,NULL,"2013-11-30 14:43:37",0,"2018-06-08 10:08:17"
142,"Ngô Sỹ Liên",7,2,NULL,0,NULL,NULL,NULL,21.0271286,105.83881440000005,1,1,1,NULL,7,1,NULL,NULL,NULL,"2013-11-30 14:43:50",0,"2018-06-08 10:08:17"
145,"Ngọc Hà",2,2,NULL,0,NULL,NULL,NULL,21.0378157,105.82829590000006,1,1,1,NULL,2,1,NULL,NULL,NULL,"2015-08-24 17:40:26",0,"2018-06-08 10:08:17"
146,"Hàng Đậu",2,2,NULL,0,NULL,NULL,NULL,21.0403921,105.84916229999999,1,1,1,NULL,2,1,NULL,NULL,NULL,"2013-11-30 14:46:14",0,"2018-06-08 10:08:17"
147,"Hàng Bún",2,2,NULL,0,NULL,NULL,NULL,21.0422981,105.84525299999996,1,1,1,NULL,2,1,NULL,NULL,NULL,"2013-11-30 14:46:22",0,"2018-06-08 10:08:17"
148,"Giảng Võ",2,2,NULL,0,NULL,NULL,NULL,21.0270609,105.8194896,1,1,1,NULL,2,1,NULL,NULL,NULL,"2013-11-30 14:46:27",0,"2018-06-08 10:08:17"
149,"Giang Văn Minh",2,2,NULL,0,NULL,NULL,NULL,21.0321272,105.82695779999995,1,1,1,NULL,2,1,NULL,NULL,NULL,"2013-11-30 14:46:34",0,"2018-06-08 10:08:17"
150,"Đội Nhân",2,2,NULL,0,NULL,NULL,NULL,21.0410993,105.81143980000002,1,1,1,NULL,2,1,NULL,NULL,NULL,"2013-11-30 14:46:45",0,"2018-06-08 10:08:17"
151,"Đội Cấn",2,2,NULL,0,NULL,NULL,NULL,21.0353777,105.81942779999997,1,1,1,NULL,2,1,NULL,NULL,NULL,"2018-05-03 09:56:11",0,"2018-06-08 10:08:17"
152,"Đốc Ngữ",2,2,NULL,0,NULL,NULL,NULL,21.0394752,105.81280709999999,1,1,1,NULL,2,1,NULL,NULL,NULL,"2013-11-30 15:03:19",0,"2018-06-08 10:08:17"
153,"Đặng Tất",2,2,NULL,0,NULL,NULL,NULL,21.0427646,105.83803669999998,1,1,1,NULL,2,1,NULL,NULL,NULL,"2013-11-30 15:03:58",0,"2018-06-08 10:08:17"
154,"Đặng Dung",2,2,NULL,0,NULL,NULL,NULL,21.0426477,105.84136749999993,1,1,1,NULL,2,1,NULL,NULL,NULL,"2013-11-30 15:04:06",0,"2018-06-08 10:08:17"
155,"Cửa Bắc",2,2,NULL,0,NULL,NULL,NULL,21.0444065,105.84304139999995,1,1,1,NULL,2,1,NULL,NULL,NULL,"2013-11-30 15:04:13",0,"2018-06-08 10:08:17"
156,"Chùa Một Cột",2,2,NULL,0,NULL,NULL,NULL,21.0350216,105.83585730000004,1,1,1,NULL,2,1,NULL,NULL,NULL,"2013-11-30 15:04:20",0,"2018-06-08 10:08:17"
157,"Hàng Than",2,2,NULL,0,NULL,NULL,NULL,21.0419431,105.84723229999997,1,1,1,NULL,2,1,NULL,NULL,NULL,"2013-11-30 15:04:27",0,"2018-06-08 10:08:17"
158,"Hòe Nhai",2,2,NULL,0,NULL,NULL,NULL,21.0404822,105.84555479999995,1,1,1,NULL,2,1,NULL,NULL,NULL,"2013-11-30 15:04:35",0,"2018-06-08 10:08:17"
159,"Hồng Phúc",2,2,NULL,0,NULL,NULL,NULL,21.0410982,105.84826650000002,1,1,1,NULL,2,1,NULL,NULL,NULL,"2013-11-30 15:04:43",0,"2018-06-08 10:08:17"
160,"Nghĩa Dũng",2,2,NULL,0,NULL,NULL,NULL,21.0480801,105.8467561,1,1,1,NULL,2,1,NULL,NULL,NULL,"2013-11-30 15:04:58",0,"2018-06-08 10:08:17"
161,"Nam Tràng",2,2,NULL,0,NULL,NULL,NULL,21.0463792,105.84028519999993,1,1,1,NULL,2,1,NULL,NULL,NULL,"2013-11-30 15:05:06",0,"2018-06-08 10:08:17"
162,"Nam Cao",2,2,NULL,0,NULL,NULL,NULL,21.0291882,105.8211943,1,1,1,NULL,2,1,NULL,NULL,NULL,"2013-11-30 15:05:15",0,"2018-06-08 10:08:17"
163,"Linh Lang",2,2,NULL,0,NULL,NULL,NULL,21.0351346,105.81045449999999,1,1,1,NULL,2,1,NULL,NULL,NULL,"2013-11-30 15:05:23",0,"2018-06-08 10:08:17"
164,"Liễu Giai",2,2,NULL,0,NULL,NULL,NULL,21.0379972,105.81875579999996,1,1,1,NULL,2,1,NULL,NULL,NULL,"2013-11-30 15:05:32",0,"2018-06-08 10:08:17"
165,"Lê Hồng Phong",2,2,NULL,0,NULL,NULL,NULL,21.0341202,105.83463449999999,1,1,1,NULL,2,1,NULL,NULL,NULL,"2013-11-30 15:35:57",0,"2018-06-08 10:08:17"
166,"Láng Hạ",2,2,NULL,0,NULL,NULL,NULL,21.0153717,105.81288510000002,1,1,1,NULL,2,1,NULL,NULL,NULL,"2013-11-30 15:06:37",0,"2018-06-08 10:08:17"
167,"Lạc Chính",2,2,NULL,0,NULL,NULL,NULL,21.0463331,105.84143730000005,1,1,1,NULL,2,1,NULL,NULL,NULL,"2013-11-30 15:06:44",0,"2018-06-08 10:08:17"
168,"Kim Mã Thượng",2,2,NULL,0,NULL,NULL,NULL,21.0360849,105.81137000000001,1,1,1,NULL,2,1,NULL,NULL,NULL,"2013-11-30 15:06:53",0,"2018-06-08 10:08:17"
169,"Kim Mã",2,2,NULL,0,NULL,NULL,NULL,21.0316443,105.82462659999999,1,1,1,NULL,2,1,NULL,NULL,NULL,"2013-11-30 15:07:02",0,"2018-06-08 10:08:17"
170,"Huỳnh Thúc Kháng",2,2,NULL,0,NULL,NULL,NULL,21.0177698,105.81279689999997,1,1,1,NULL,2,1,NULL,NULL,NULL,"2013-11-30 15:07:09",0,"2018-06-08 10:08:17"
171,"Chu Văn An",2,2,NULL,0,NULL,NULL,NULL,21.0326453,105.83648719999997,1,1,1,NULL,2,1,NULL,NULL,NULL,"2013-11-30 15:21:36",0,"2018-06-08 10:08:17"
172,"Châu Long",2,2,NULL,0,NULL,NULL,NULL,21.0446515,105.84231690000001,1,1,1,NULL,2,1,NULL,NULL,NULL,"2013-11-30 15:08:26",0,"2018-06-08 10:08:17"
173,"Bắc Sơn",2,2,NULL,0,NULL,NULL,NULL,21.0362328,105.83838100000003,1,1,1,NULL,2,1,NULL,NULL,NULL,"2013-11-30 15:08:36",0,"2018-06-08 10:08:17"
174,"Trần Huy Liệu",2,2,NULL,0,NULL,NULL,NULL,21.0295565,105.82063719999996,1,1,1,NULL,2,1,NULL,NULL,NULL,"2014-04-23 11:57:47",0,"2018-06-08 10:08:17"
175,"An Trạch",2,2,NULL,0,NULL,NULL,NULL,21.027661,105.83000360000005,1,1,1,NULL,2,1,NULL,NULL,NULL,"2013-11-30 15:09:05",0,"2018-06-08 10:08:17"
176,"Yên Thế",2,2,NULL,0,NULL,NULL,NULL,21.028811,105.83939370000007,1,1,1,NULL,2,1,NULL,NULL,NULL,"2013-11-30 15:09:14",0,"2018-06-08 10:08:17"
177,"Mạc Đĩnh Chi",2,2,NULL,0,NULL,NULL,NULL,20.0792203,105.86682199999996,1,1,1,NULL,2,1,NULL,NULL,NULL,"2013-11-30 15:09:25",0,"2018-06-08 10:08:17"
178,"Trần Tế Xương",2,2,NULL,0,NULL,NULL,NULL,21.0454573,105.84122290000005,1,1,1,NULL,2,1,NULL,NULL,NULL,"2013-11-30 15:09:47",0,"2018-06-08 10:08:17"
179,"Vĩnh Phúc",2,2,NULL,0,NULL,NULL,NULL,21.0417308,105.80994989999999,1,1,1,NULL,2,1,NULL,NULL,NULL,"2013-11-30 15:09:55",0,"2018-06-08 10:08:17"
180,"Nguyễn Khác Nhu",2,2,NULL,0,NULL,NULL,NULL,21.0441416,105.84527359999993,1,1,1,NULL,2,1,NULL,NULL,NULL,"2013-11-30 15:10:02",0,"2018-06-08 10:08:17"
181,"Chùa Nền",2,2,NULL,0,NULL,NULL,NULL,21.0265394,105.7994529,1,1,1,NULL,2,1,NULL,NULL,NULL,"2013-11-30 15:10:08",0,"2018-06-08 10:08:17"
182,"Tập thể Thành Công",2,2,NULL,0,NULL,NULL,NULL,21.02787,105.81759499999998,1,1,1,NULL,2,1,NULL,NULL,NULL,"2013-11-30 15:10:15",0,"2018-06-08 10:08:17"
183,Bưởi,2,2,NULL,0,NULL,NULL,NULL,21.0530438,105.81288510000002,1,1,1,NULL,2,1,NULL,NULL,NULL,"2013-11-30 15:10:24",0,"2018-06-08 10:08:17"
185,"Đào Tấn",2,2,NULL,0,NULL,NULL,NULL,21.03251,105.80913710000004,1,1,1,NULL,2,1,NULL,NULL,NULL,"2013-11-30 15:10:31",0,"2018-06-08 10:08:17"
186,"Cao Bá Quát",2,2,NULL,0,NULL,NULL,NULL,21.0302353,105.83926309999993,1,1,1,NULL,2,1,NULL,NULL,NULL,"2013-11-30 15:10:38",0,"2018-06-08 10:08:17"
187,"Bà Thanh Quan",2,2,NULL,0,NULL,NULL,NULL,21.0344302,105.83574929999997,1,NULL,NULL,NULL,2,1,NULL,NULL,NULL,"2017-11-30 16:06:32",0,"2018-06-08 10:08:17"
188,"An Xá",2,2,NULL,0,NULL,NULL,NULL,21.0455758,105.85039210000002,1,1,1,NULL,2,1,NULL,NULL,NULL,"2013-11-30 15:10:53",0,"2018-06-08 10:08:17"
189,"Nguyễn Tri Phương",2,2,NULL,0,NULL,NULL,NULL,21.0356797,105.841186,1,1,1,NULL,2,1,NULL,NULL,NULL,"2013-11-30 15:11:00",0,"2018-06-08 10:08:17"
190,"Lê Duẩn",2,2,NULL,0,NULL,NULL,NULL,21.0287259,105.84149660000003,1,1,1,NULL,2,1,NULL,NULL,NULL,"2013-11-30 15:11:08",0,"2018-06-08 10:08:17"
191,"La Thành",2,2,NULL,0,NULL,NULL,NULL,21.0245142,105.81287880000002,1,1,1,NULL,2,1,NULL,NULL,NULL,"2013-11-30 15:11:14",0,"2018-06-08 10:08:17"
192,"Hùng Vương",2,2,NULL,0,NULL,NULL,NULL,21.0352,105.83479910000005,1,1,1,NULL,2,1,NULL,NULL,NULL,"2013-11-30 15:11:21",0,"2018-06-08 10:08:17"
193,"Hồng Hà",2,2,NULL,0,NULL,NULL,NULL,21.041118,105.85040819999995,1,1,1,NULL,2,1,NULL,NULL,NULL,"2013-11-30 15:11:28",0,"2018-06-08 10:08:17"
194,"Hoàng Diệu",2,2,NULL,0,NULL,NULL,NULL,21.0356503,105.83919639999999,1,1,1,NULL,2,1,NULL,NULL,NULL,"2013-11-30 15:11:37",0,"2018-06-08 10:08:17"
195,"Điện Biên Phủ",2,2,NULL,0,NULL,NULL,NULL,21.0313896,105.84046390000003,1,1,1,NULL,2,1,NULL,NULL,NULL,"2013-11-30 15:11:43",0,"2018-06-08 10:08:17"
196,"Đê La Thành",2,2,NULL,0,NULL,NULL,NULL,21.0146484,105.83438990000002,1,1,1,NULL,2,1,NULL,NULL,NULL,"2013-11-30 15:11:51",0,"2018-06-08 10:08:17"
197,"Ngọc Khánh",2,2,NULL,0,NULL,NULL,NULL,21.0301393,105.80994989999999,1,1,1,NULL,2,1,NULL,NULL,NULL,"2013-11-30 15:11:58",0,"2018-06-08 10:08:17"
198,"Yên Ninh",2,2,NULL,0,NULL,NULL,NULL,21.0427916,105.8442245,1,1,1,NULL,2,1,NULL,NULL,NULL,"2013-11-30 15:12:06",0,"2018-06-08 10:08:17"
199,"Phó Đức Chính",2,2,NULL,0,NULL,NULL,NULL,21.0489283,105.84104060000004,1,1,1,NULL,2,1,NULL,NULL,NULL,"2013-11-30 15:12:13",0,"2018-06-08 10:08:17"
200,"Phúc Xá",2,2,NULL,0,NULL,NULL,NULL,21.0467979,105.84811160000004,1,1,1,NULL,2,1,NULL,NULL,NULL,"2013-11-30 15:12:20",0,"2018-06-08 10:08:17"
201,"Quán Thánh",2,2,NULL,0,NULL,NULL,NULL,21.0389429,105.83930439999995,1,1,1,NULL,2,1,NULL,NULL,NULL,"2013-11-30 15:12:28",0,"2018-06-08 10:08:17"
202,"Sơn Tây",2,2,NULL,0,NULL,NULL,NULL,21.0329541,105.8310404,1,1,1,NULL,2,1,NULL,NULL,NULL,"2016-08-25 16:39:24",0,"2018-06-08 10:08:17"
203,"Tân Ấp",2,2,NULL,0,NULL,NULL,NULL,21.0464487,105.84672699999999,1,1,1,NULL,2,1,NULL,NULL,NULL,"2013-11-30 15:12:47",0,"2018-06-08 10:08:17"
204,"Thanh Bảo",2,2,NULL,0,NULL,NULL,NULL,21.0333111,105.8313015,1,1,1,NULL,2,1,NULL,NULL,NULL,"2013-11-30 15:12:53",0,"2018-06-08 10:08:17"
205,"Thành Công",2,2,NULL,0,NULL,NULL,NULL,21.020889,105.8158204,1,1,1,NULL,2,1,NULL,NULL,NULL,"2013-11-30 15:13:01",0,"2018-06-08 10:08:17"
206,"Tôn Thất Đàm",2,2,NULL,0,NULL,NULL,NULL,21.0357153,105.83821239999997,1,1,1,NULL,2,1,NULL,NULL,NULL,"2013-11-30 15:13:07",0,"2018-06-08 10:08:17"
207,"Tôn Thất Thiệp",2,2,NULL,0,NULL,NULL,NULL,21.0303147,105.84284550000007,1,1,1,NULL,2,1,NULL,NULL,NULL,"2013-11-30 15:13:46",0,"2018-06-08 10:08:17"
208,"Trần Phú",2,2,NULL,0,NULL,NULL,NULL,21.031128,105.83868970000003,1,1,1,NULL,2,1,NULL,NULL,NULL,"2013-12-26 15:43:10",0,"2018-06-08 10:08:17"
209,"Trấn Vũ",2,2,NULL,0,NULL,NULL,NULL,21.0433298,105.84016610000003,1,1,1,NULL,2,1,NULL,NULL,NULL,"2013-11-30 15:14:08",0,"2018-06-08 10:08:17"
210,"Trúc Bạch",2,2,NULL,0,NULL,NULL,NULL,21.0452531,105.84150620000003,1,1,1,NULL,2,1,NULL,NULL,NULL,"2013-11-30 15:14:15",0,"2018-06-08 10:08:17"
211,"Vạn Bảo",2,2,NULL,0,NULL,NULL,NULL,21.0328217,105.81697310000004,1,1,1,NULL,2,1,NULL,NULL,NULL,"2013-11-30 15:14:23",0,"2018-06-08 10:08:17"
212,"Văn Cao",2,2,NULL,0,NULL,NULL,NULL,21.0401927,105.81607009999993,1,1,1,NULL,2,1,NULL,NULL,NULL,"2013-11-30 15:14:31",0,"2018-06-08 10:08:17"
213,"Vạn Phúc",2,2,NULL,0,NULL,NULL,NULL,21.0333399,105.82080599999995,1,1,1,NULL,2,1,NULL,NULL,NULL,"2013-11-30 15:14:38",0,"2018-06-08 10:08:17"
214,"Phan Huy Ích",2,2,NULL,0,NULL,NULL,NULL,21.0416137,105.84578809999994,1,1,1,NULL,2,1,NULL,NULL,NULL,"2013-11-30 15:14:45",0,"2018-06-08 10:08:17"
215,"Phan Đình Phùng",2,2,NULL,0,NULL,NULL,NULL,21.040585,105.84198889999993,1,1,1,NULL,2,1,NULL,NULL,NULL,"2013-11-30 15:14:53",0,"2018-06-08 10:08:17"
216,"Ngũ Xã",2,2,NULL,0,NULL,NULL,NULL,21.046146,105.84146780000003,1,1,1,NULL,2,1,NULL,NULL,NULL,"2013-11-30 15:15:01",0,"2018-06-08 10:08:17"
217,"Nguyễn Biểu",2,2,NULL,0,NULL,NULL,NULL,21.0427936,105.84011399999997,1,1,1,NULL,2,1,NULL,NULL,NULL,"2013-11-30 15:15:08",0,"2018-06-08 10:08:17"
218,"Nguyễn Cảnh Chân",2,2,NULL,0,NULL,NULL,NULL,21.0404628,105.83781939999994,1,1,1,NULL,2,1,NULL,NULL,NULL,"2013-11-30 15:15:16",0,"2018-06-08 10:08:17"
219,"Nguyễn Chí Thanh",2,2,NULL,0,NULL,NULL,NULL,21.0251082,105.81145579999998,1,1,1,NULL,2,1,NULL,NULL,NULL,"2013-12-18 16:29:11",0,"2018-06-08 10:08:17"
220,"Nguyễn Công Hoan",2,2,NULL,0,NULL,NULL,NULL,21.02727,105.81534639999995,1,1,1,NULL,2,1,NULL,NULL,NULL,"2013-11-30 15:15:33",0,"2018-06-08 10:08:17"
221,"Nguyên Hồng",2,2,NULL,0,NULL,NULL,NULL,21.021603,105.81207280000001,1,1,1,NULL,2,1,NULL,NULL,NULL,"2013-11-30 15:15:58",0,"2018-06-08 10:08:17"
222,"Phạm Huy Thông",2,2,NULL,0,NULL,NULL,NULL,21.0283616,105.81073570000001,1,1,1,NULL,2,1,NULL,NULL,NULL,"2013-11-30 15:16:07",0,"2018-06-08 10:08:17"
223,"Nguyễn Khắc Hiếu",2,2,NULL,0,NULL,NULL,NULL,21.0459787,105.84088500000007,1,1,1,NULL,2,1,NULL,NULL,NULL,"2013-11-30 15:16:14",0,"2018-06-08 10:08:17"
224,"Nguyễn Thái Học",2,2,NULL,0,NULL,NULL,NULL,21.0305206,105.83579450000002,1,1,1,NULL,2,1,NULL,NULL,NULL,"2013-11-30 15:16:22",0,"2018-06-08 10:08:17"
225,"Phạm Hồng Thái",2,2,NULL,0,NULL,NULL,NULL,21.043749,105.84457729999997,1,1,1,NULL,2,1,NULL,NULL,NULL,"2013-11-30 15:16:29",0,"2018-06-08 10:08:17"
226,"Ông Ích Khiêm",2,2,NULL,0,NULL,NULL,NULL,21.0332513,105.83355740000002,1,1,1,NULL,2,1,NULL,NULL,NULL,"2013-11-30 15:16:37",0,"2018-06-08 10:08:17"
227,"Núi Trúc",2,2,NULL,0,NULL,NULL,NULL,21.0300565,105.82272250000005,1,1,1,NULL,2,1,NULL,NULL,NULL,"2013-11-30 15:16:46",0,"2018-06-08 10:08:17"
228,"Nguyễn Văn Ngọc",2,2,NULL,0,NULL,NULL,NULL,21.0320506,105.81085099999996,1,1,1,NULL,2,1,NULL,NULL,NULL,"2013-11-30 15:16:57",0,"2018-06-08 10:08:17"
229,"Nguyễn Trường Tộ",2,2,NULL,0,NULL,NULL,NULL,21.042715,105.84437209999999,1,1,1,NULL,2,1,NULL,NULL,NULL,"2013-11-30 15:17:05",0,"2018-06-08 10:08:17"
230,"Nguyễn Thiếp",2,2,NULL,0,NULL,NULL,NULL,21.0404872,105.84941980000008,1,1,1,NULL,2,1,NULL,NULL,NULL,"2013-11-30 15:17:12",0,"2018-06-08 10:08:17"
231,"Vũ Xuân Thiều",5,2,NULL,0,NULL,NULL,NULL,21.0380238,105.92208359999995,1,1,1,NULL,5,1,NULL,NULL,NULL,"2017-06-28 15:41:46",0,"2018-06-08 10:08:17"
232,"Việt Hưng",5,2,NULL,0,NULL,NULL,NULL,21.0575538,105.90243220000002,1,1,1,NULL,5,1,NULL,NULL,NULL,"2017-06-29 17:46:26",0,"2018-06-08 10:08:17"
233,"Huỳnh Văn Nghệ",5,2,NULL,0,NULL,NULL,NULL,21.0390218,105.90784029999998,1,1,1,NULL,5,1,NULL,NULL,NULL,"2013-11-30 15:17:34",0,"2018-06-08 10:08:17"
234,"Hoa Lâm",5,2,NULL,0,NULL,NULL,NULL,21.0569185,105.89580060000003,1,1,1,NULL,5,1,NULL,NULL,NULL,"2013-11-30 15:17:41",0,"2018-06-08 10:08:17"
235,"Gia Quất",5,2,NULL,0,NULL,NULL,NULL,21.0553105,105.88040849999993,1,1,1,NULL,5,1,NULL,NULL,NULL,"2013-11-30 15:17:48",0,"2018-06-08 10:08:17"
236,"Thượng Thanh",5,2,NULL,0,NULL,NULL,NULL,21.0655013,105.88831370000003,1,1,1,NULL,5,1,NULL,NULL,NULL,"2017-09-05 17:01:24",0,"2018-06-08 10:08:17"
237,"Hoàng Như Tiếp",5,2,NULL,0,NULL,NULL,NULL,21.0398013,105.8785325,1,1,1,NULL,5,1,NULL,NULL,NULL,"2013-11-30 15:18:04",0,"2018-06-08 10:08:17"
238,"Ngô Gia Tự",5,2,NULL,0,NULL,NULL,NULL,21.0627468,105.89530300000001,1,1,NULL,NULL,5,1,NULL,NULL,NULL,"2017-06-23 11:21:51",0,"2018-06-08 10:08:17"
239,"Ngọc Lâm",5,2,NULL,0,NULL,NULL,NULL,21.0448412,105.86866350000003,1,1,1,NULL,5,1,NULL,NULL,NULL,"2013-11-30 15:18:19",0,"2018-06-08 10:08:17"
240,"Ngọc Thụy",5,2,NULL,0,NULL,NULL,NULL,21.0588582,105.8583873,1,1,1,NULL,5,1,NULL,NULL,NULL,"2014-08-19 17:03:54",0,"2018-06-08 10:08:17"
241,"Nguyễn Văn Linh",5,2,NULL,0,NULL,NULL,NULL,21.0342887,105.90482350000002,1,1,1,NULL,5,1,NULL,NULL,NULL,"2013-11-30 15:18:33",0,"2018-06-08 10:08:17"
242,"Thạch Cầu",5,2,NULL,0,NULL,NULL,NULL,21.0243758,105.87820620000002,1,1,1,NULL,5,1,NULL,NULL,NULL,"2013-11-30 15:18:41",0,"2018-06-08 10:08:17"
243,"Nguyễn Văn Cừ",5,2,NULL,0,NULL,NULL,NULL,21.0321657,105.87828569999999,1,1,1,NULL,5,1,NULL,NULL,NULL,"2013-11-30 15:18:48",0,"2018-06-08 10:08:17"
244,"Vạn Hạnh",5,2,NULL,0,NULL,NULL,NULL,21.0689028,105.90876639999999,1,1,1,NULL,5,1,NULL,NULL,NULL,"2013-11-30 15:18:56",0,"2018-06-08 10:08:17"
245,"Sài Đồng",5,2,NULL,0,NULL,NULL,NULL,21.0302778,105.9191667,1,1,1,NULL,5,1,NULL,NULL,NULL,"2013-11-30 15:19:03",0,"2018-06-08 10:08:17"
246,"Tư Đình",5,2,NULL,0,NULL,NULL,NULL,21.0265735,105.88554709999994,1,1,1,NULL,5,1,NULL,NULL,NULL,"2013-11-30 15:19:10",0,"2018-06-08 10:08:17"
247,"Bồ Đề",5,2,NULL,0,NULL,NULL,NULL,21.0371784,105.87306779999994,1,1,1,NULL,5,1,NULL,NULL,NULL,"2014-02-25 10:12:13",0,"2018-06-08 10:08:17"
248,"Phú Viên",5,2,NULL,0,NULL,NULL,NULL,21.025386,105.88371989999996,1,1,1,NULL,5,1,NULL,NULL,NULL,"2013-11-30 15:19:24",0,"2018-06-08 10:08:17"
249,"Ô Cách",5,2,NULL,0,NULL,NULL,NULL,21.061409,105.89619190000008,1,1,1,NULL,5,1,NULL,NULL,NULL,"2013-11-30 15:19:32",0,"2018-06-08 10:08:17"
250,"Nguyễn Cao Luyện",5,2,NULL,0,NULL,NULL,NULL,21.0657792,105.90685400000007,1,1,1,NULL,5,1,NULL,NULL,NULL,"2013-11-30 15:19:40",0,"2018-06-08 10:08:17"
251,"Nguyễn Sơn",5,2,NULL,0,NULL,NULL,NULL,21.046373,105.87915850000002,1,1,1,NULL,5,1,NULL,NULL,NULL,"2013-11-30 15:19:47",0,"2018-06-08 10:08:17"
252,"Ngô Gia Khảm",5,2,NULL,0,NULL,NULL,NULL,21.0478119,105.87848439999993,1,1,1,NULL,5,1,NULL,NULL,NULL,"2017-06-29 14:37:11",0,"2018-06-08 10:08:17"
253,"Mai Phúc",5,2,NULL,0,NULL,NULL,NULL,21.0404853,105.90059159999998,1,1,1,NULL,5,1,NULL,NULL,NULL,"2013-11-30 15:20:07",0,"2018-06-08 10:08:17"
254,"Long Biên 2",5,2,NULL,0,NULL,NULL,NULL,21.0447992,105.86675630000002,1,1,1,NULL,5,1,NULL,NULL,NULL,"2018-05-21 12:39:03",0,"2018-06-08 10:08:17"
255,"Thanh Am",5,2,NULL,0,NULL,NULL,NULL,21.0741413,105.90316640000003,1,1,1,NULL,5,1,NULL,NULL,NULL,"2013-11-30 15:20:20",0,"2018-06-08 10:08:17"
256,"Thạch Bàn",5,2,NULL,0,NULL,NULL,NULL,21.0216695,105.9141793,1,1,1,NULL,5,1,NULL,NULL,NULL,"2013-11-30 15:20:27",0,"2018-06-08 10:08:17"
257,"Tân Thụy",5,2,NULL,0,NULL,NULL,NULL,21.0434549,105.89811639999994,1,1,1,NULL,5,1,NULL,NULL,NULL,"2014-02-19 13:17:23",0,"2018-06-08 10:08:17"
258,"Huỳnh Tấn Phát",5,2,NULL,0,NULL,NULL,NULL,21.0269022,105.90587630000005,1,1,1,NULL,5,1,NULL,NULL,NULL,"2013-11-30 15:20:42",0,"2018-06-08 10:08:17"
259,"Long Biên 1",5,2,NULL,0,NULL,NULL,NULL,21.0457692,105.8678251,1,1,1,NULL,5,1,NULL,NULL,NULL,"2013-11-30 15:20:48",0,"2018-06-08 10:08:17"
260,"Tạ Hiện",3,2,NULL,0,NULL,NULL,NULL,21.0351799,105.8519708,1,1,1,NULL,3,1,NULL,NULL,NULL,"2013-11-30 15:20:56",0,"2018-06-08 10:08:17"
261,"Phạm Ngũ Lão",3,2,NULL,0,NULL,NULL,NULL,21.0240786,105.85923130000003,1,1,1,NULL,3,1,NULL,NULL,NULL,"2013-11-30 15:21:03",0,"2018-06-08 10:08:17"
262,"Phạm Sư Mạnh",3,2,NULL,0,NULL,NULL,NULL,21.0227582,105.85522679999997,1,1,1,NULL,3,1,NULL,NULL,NULL,"2013-11-30 15:21:10",0,"2018-06-08 10:08:17"
263,"Phan Bội Châu",3,2,NULL,0,NULL,NULL,NULL,21.0259732,105.84343979999994,1,1,1,NULL,3,1,NULL,NULL,NULL,"2013-11-30 15:21:17",0,"2018-06-08 10:08:17"
264,"Phan Chu Trinh",3,2,NULL,0,NULL,NULL,NULL,21.0205376,105.85765330000004,1,1,1,NULL,3,1,NULL,NULL,NULL,"2013-11-30 15:21:25",0,"2018-06-08 10:08:17"
265,"Phan Huy Chú",3,2,NULL,0,NULL,NULL,NULL,21.0212653,105.85752159999993,1,1,1,NULL,3,1,NULL,NULL,NULL,"2013-11-30 15:21:32",0,"2018-06-08 10:08:17"
266,"Phủ Doãn",3,2,NULL,0,NULL,NULL,NULL,21.0288436,105.84776439999996,1,1,1,NULL,3,1,NULL,NULL,NULL,"2013-11-30 15:21:40",0,"2018-06-08 10:08:17"
267,"Phúc Tân",3,2,NULL,0,NULL,NULL,NULL,21.0372674,105.85691930000007,1,1,1,NULL,3,1,NULL,NULL,NULL,"2013-11-30 15:21:47",0,"2018-06-08 10:08:17"
268,"Phùng Hưng",3,2,NULL,0,NULL,NULL,NULL,21.0349431,105.845778,1,1,1,NULL,3,1,NULL,NULL,NULL,"2013-11-30 15:21:55",0,"2018-06-08 10:08:17"
269,"Quán Sứ",3,2,NULL,0,NULL,NULL,NULL,21.0263825,105.84563260000004,1,1,1,NULL,3,1,NULL,NULL,NULL,"2013-11-30 15:22:02",0,"2018-06-08 10:08:17"
270,"Quang Trung",3,2,NULL,0,NULL,NULL,NULL,21.0201427,105.84796370000004,1,1,1,NULL,3,1,NULL,NULL,NULL,"2013-11-30 15:22:09",0,"2018-06-08 10:08:17"
271,"Ô Quan Chưởng",3,2,NULL,0,NULL,NULL,NULL,21.037383,105.85253469999998,1,1,1,NULL,3,1,NULL,NULL,NULL,"2013-11-30 15:22:16",0,"2018-06-08 10:08:17"
272,"Nguyễn Văn Tố",3,2,NULL,0,NULL,NULL,NULL,21.0316934,105.8459719,1,1,1,NULL,3,1,NULL,NULL,NULL,"2013-11-30 15:22:23",0,"2018-06-08 10:08:17"
273,"Ngô Văn Sở",3,2,NULL,0,NULL,NULL,NULL,21.0206871,105.84917240000004,1,1,1,NULL,3,1,NULL,NULL,NULL,"2013-11-30 15:22:33",0,"2018-06-08 10:08:17"
274,"Nguyên Khiết",3,2,NULL,0,NULL,NULL,NULL,21.0348693,105.85583870000005,1,1,1,NULL,3,1,NULL,NULL,NULL,"2013-11-30 15:22:41",0,"2018-06-08 10:08:17"
275,"Nguyễn Chế Nghĩa",3,2,NULL,0,NULL,NULL,NULL,21.0200776,105.85291480000001,1,1,1,NULL,3,1,NULL,NULL,NULL,"2013-11-30 15:22:25",0,"2018-06-08 10:08:17"
276,"Nguyễn Gia Thiều",3,2,NULL,0,NULL,NULL,NULL,21.0201797,105.84598319999998,1,1,1,NULL,3,1,NULL,NULL,NULL,"2013-11-30 15:22:18",0,"2018-06-08 10:08:17"
277,"Nguyễn Hữu Huân",3,2,NULL,0,NULL,NULL,NULL,21.0329797,105.85439369999995,1,1,1,NULL,3,1,NULL,NULL,NULL,"2013-11-30 15:22:07",0,"2018-06-08 10:08:17"
278,"Nguyễn Khắc Cần",3,2,NULL,0,NULL,NULL,NULL,21.0234665,105.85544129999994,1,1,1,NULL,3,1,NULL,NULL,NULL,"2013-11-30 15:26:19",0,"2018-06-08 10:08:17"
279,"Nguyễn Siêu",3,2,NULL,0,NULL,NULL,NULL,21.0365512,105.85168109999995,1,1,1,NULL,3,1,NULL,NULL,NULL,"2013-11-30 15:26:11",0,"2018-06-08 10:08:17"
280,"Nguyễn Thiện Thuật",3,2,NULL,0,NULL,NULL,NULL,21.0381145,105.85061289999999,1,1,1,NULL,3,1,NULL,NULL,NULL,"2013-11-30 15:26:05",0,"2018-06-08 10:08:17"
281,"Nguyễn Thiếp",3,2,NULL,0,NULL,NULL,NULL,21.0394032,105.84979799999996,1,1,1,NULL,3,1,NULL,NULL,NULL,"2013-11-30 15:25:59",0,"2018-06-08 10:08:17"
282,"Nguyễn Tư Giản",3,2,NULL,0,NULL,NULL,NULL,21.0381591,105.85493329999997,1,1,1,NULL,3,1,NULL,NULL,NULL,"2013-11-30 15:25:52",0,"2018-06-08 10:08:17"
283,"Nguyễn Xí",3,2,NULL,0,NULL,NULL,NULL,21.0253933,105.85446869999998,1,1,1,NULL,3,1,NULL,NULL,NULL,"2013-11-30 15:25:46",0,"2018-06-08 10:08:17"
284,"Thanh Hà",3,2,NULL,0,NULL,NULL,NULL,21.0377458,105.85133399999995,1,1,1,NULL,3,1,NULL,NULL,NULL,"2013-11-30 15:25:39",0,"2018-06-08 10:08:17"
285,"Thanh Yên",3,2,NULL,0,NULL,NULL,NULL,21.0377335,105.85429610000006,1,1,1,NULL,3,1,NULL,NULL,NULL,"2013-11-30 15:25:31",0,"2018-06-08 10:08:17"
286,"Vọng Hà",3,2,NULL,0,NULL,NULL,NULL,21.0307623,105.85761849999994,1,1,1,NULL,3,1,NULL,NULL,NULL,"2013-11-30 15:25:21",0,"2018-06-08 10:08:17"
287,"Yết Kiêu",3,2,NULL,0,NULL,NULL,NULL,21.0216445,105.84309180000002,1,1,1,NULL,3,1,NULL,NULL,NULL,"2013-11-30 15:25:12",0,"2018-06-08 10:08:17"
288,"Lê Văn Hưu",3,2,NULL,0,NULL,NULL,NULL,21.0181514,105.85222709999994,1,1,1,NULL,3,1,NULL,NULL,NULL,"2013-11-30 15:25:03",0,"2018-06-08 10:08:17"
289,"Nguyễn Du",3,2,NULL,0,NULL,NULL,NULL,21.0187567,105.84590980000007,1,1,1,NULL,3,1,NULL,NULL,NULL,"2013-11-30 15:24:49",0,"2018-06-08 10:08:17"
290,"Đinh Liệt",3,2,NULL,0,NULL,NULL,NULL,21.0330945,105.8519298,1,1,1,NULL,3,1,NULL,NULL,NULL,"2013-11-30 15:24:42",0,"2018-06-08 10:08:17"
291,"Chợ Gạo",3,2,NULL,0,NULL,NULL,NULL,21.0368849,105.85286710000003,1,1,1,NULL,3,1,NULL,NULL,NULL,"2013-11-30 15:24:32",0,"2018-06-08 10:08:17"
292,"Trương Hán Siêu",3,2,NULL,0,NULL,NULL,NULL,21.0198506,105.84876199999997,1,1,1,NULL,3,1,NULL,NULL,NULL,"2013-11-30 15:24:24",0,"2018-06-08 10:08:17"
293,"Hàng Trống",3,2,NULL,0,NULL,NULL,NULL,21.0284792,105.85031349999997,1,1,1,NULL,3,1,NULL,NULL,NULL,"2013-11-30 15:24:14",0,"2018-06-08 10:08:17"
294,"Chương Dương Độ",3,2,NULL,0,NULL,NULL,NULL,21.0297722,105.85924390000002,1,1,1,NULL,3,1,NULL,NULL,NULL,"2013-11-30 15:24:04",0,"2018-06-08 10:08:17"
295,"Cầu Đất",3,2,NULL,0,NULL,NULL,NULL,21.0247999,105.86086019999993,1,1,1,NULL,3,1,NULL,NULL,NULL,"2013-11-30 15:23:55",0,"2018-06-08 10:08:17"
296,"Vọng Đức",3,2,NULL,0,NULL,NULL,NULL,21.0219925,105.85326929999997,1,1,1,NULL,3,1,NULL,NULL,NULL,"2013-11-30 15:23:48",0,"2018-06-08 10:08:17"
297,"Triệu Quốc Đạt",3,2,NULL,0,NULL,NULL,NULL,21.0264464,105.84761070000002,1,1,1,NULL,3,1,NULL,NULL,NULL,"2013-11-30 15:23:39",0,"2018-06-08 10:08:17"
298,"Tràng Tiền",3,2,NULL,0,NULL,NULL,NULL,21.0251629,105.85471729999995,1,1,1,NULL,3,1,NULL,NULL,NULL,"2013-11-30 15:23:32",0,"2018-06-08 10:08:17"
299,"Thợ Nhuộm",3,2,NULL,0,NULL,NULL,NULL,21.0252309,105.84593569999993,1,1,1,NULL,3,1,NULL,NULL,NULL,"2013-11-30 15:23:23",0,"2018-06-08 10:08:17"
300,"Thuốc Bắc",3,2,NULL,0,NULL,NULL,NULL,21.0351497,105.84819349999998,1,1,1,NULL,3,1,NULL,NULL,NULL,"2013-11-30 15:23:11",0,"2018-06-08 10:08:17"
301,"Tô Tịch",3,2,NULL,0,NULL,NULL,NULL,21.0325935,105.85024040000008,1,1,1,NULL,3,1,NULL,NULL,NULL,"2013-11-30 15:23:00",0,"2018-06-08 10:08:17"
302,"Tông Đản",3,2,NULL,0,NULL,NULL,NULL,21.0262256,105.85781999999995,1,1,1,NULL,3,1,NULL,NULL,NULL,"2013-11-30 15:22:52",0,"2018-06-08 10:08:17"
303,"Tống Duy Tân",3,2,NULL,0,NULL,NULL,NULL,21.0293115,105.84359700000005,1,1,1,NULL,3,1,NULL,NULL,NULL,"2013-12-06 09:55:57",0,"2018-06-08 10:08:17"
304,"Trần Bình Trọng",3,2,NULL,0,NULL,NULL,NULL,21.0211113,105.84473309999998,1,1,1,NULL,3,1,NULL,NULL,NULL,"2013-12-06 09:56:05",0,"2018-06-08 10:08:17"
305,"Trần Quốc Toản",3,2,NULL,0,NULL,NULL,NULL,21.020588,105.84647429999995,1,1,1,NULL,3,1,NULL,NULL,NULL,"2013-12-06 09:56:12",0,"2018-06-08 10:08:17"
306,"Trần Hưng Đạo",3,2,NULL,0,NULL,NULL,NULL,21.0229634,105.84737769999992,1,1,1,NULL,3,1,NULL,NULL,NULL,"2013-12-06 09:56:18",0,"2018-06-08 10:08:17"
307,"Trần Nguyên Hãn",3,2,NULL,0,NULL,NULL,NULL,21.0288736,105.85461929999997,1,1,1,NULL,3,1,NULL,NULL,NULL,"2013-12-06 09:56:25",0,"2018-06-08 10:08:17"
308,"Tràng Thi",3,2,NULL,0,NULL,NULL,NULL,21.027056,105.84781859999998,1,1,1,NULL,3,1,NULL,NULL,NULL,"2013-12-06 09:56:31",0,"2018-06-08 10:08:17"
309,"Bạch Đằng",3,2,NULL,0,NULL,NULL,NULL,21.0132507,105.86572739999997,1,1,1,NULL,3,1,NULL,NULL,NULL,"2013-12-06 09:56:39",0,"2018-06-08 10:08:17"
310,"Hàng Đậu",3,2,NULL,0,NULL,NULL,NULL,21.0404699,105.8492741,1,1,1,NULL,3,1,NULL,NULL,NULL,"2013-12-06 09:56:50",0,"2018-06-08 10:08:17"
311,"Hàm Long",3,2,NULL,0,NULL,NULL,NULL,21.0194585,105.85268559999997,1,1,1,NULL,3,1,NULL,NULL,NULL,"2013-12-06 09:58:33",0,"2018-06-08 10:08:17"
312,"Hai Bà Trưng",3,2,NULL,0,NULL,NULL,NULL,21.0333333,105.85000000000002,1,1,1,NULL,3,1,NULL,NULL,NULL,"2013-12-06 09:58:40",0,"2018-06-08 10:08:17"
313,"Hà Trung",3,2,NULL,0,NULL,NULL,NULL,21.0303087,105.84571830000004,1,1,1,NULL,3,1,NULL,NULL,NULL,"2013-12-06 09:58:47",0,"2018-06-08 10:08:17"
314,"Gia Ngư",3,2,NULL,0,NULL,NULL,NULL,21.0330945,105.8519298,1,1,1,NULL,3,1,NULL,NULL,NULL,"2013-12-06 09:58:53",0,"2018-06-08 10:08:17"
315,"Gầm Cầu",3,2,NULL,0,NULL,NULL,NULL,21.0395659,105.84884050000005,1,1,1,NULL,3,1,NULL,NULL,NULL,"2013-12-06 09:58:59",0,"2018-06-08 10:08:17"
316,"Đường Thành",3,2,NULL,0,NULL,NULL,NULL,21.0324042,105.84649620000005,1,NULL,NULL,NULL,3,1,NULL,NULL,NULL,"2018-04-23 10:41:47",0,"2018-06-08 10:08:17"
317,"Đồng Xuân",3,2,NULL,0,NULL,NULL,NULL,21.0386203,105.85031349999997,1,1,1,NULL,3,1,NULL,NULL,NULL,"2013-12-06 09:59:17",0,"2018-06-08 10:08:17"
318,"Đông Thái",3,2,NULL,0,NULL,NULL,NULL,21.0363622,105.85303099999999,1,1,1,NULL,3,1,NULL,NULL,NULL,"2017-09-20 17:42:11",0,"2018-06-08 10:08:17"
319,"Đình Ngang",3,2,NULL,0,NULL,NULL,NULL,21.0282553,105.84240390000002,1,1,1,NULL,3,1,NULL,NULL,NULL,"2013-12-06 09:59:30",0,"2018-06-08 10:08:17"
320,"Hàm Tử Quan",3,2,NULL,0,NULL,NULL,NULL,21.0319689,105.85812450000003,1,1,1,NULL,3,1,NULL,NULL,NULL,"2013-12-06 10:01:57",0,"2018-06-08 10:08:17"
321,"Hàng Bạc",3,2,NULL,0,NULL,NULL,NULL,21.0329432,105.8528824,1,1,1,NULL,3,1,NULL,NULL,NULL,"2013-12-06 10:02:04",0,"2018-06-08 10:08:17"
322,"Hàng Đào",3,2,NULL,0,NULL,NULL,NULL,21.0346712,105.84994649999999,1,1,1,NULL,3,1,NULL,NULL,NULL,"2013-12-06 10:02:11",0,"2018-06-08 10:08:17"
323,"Hàng Da",3,2,NULL,0,NULL,NULL,NULL,21.0305919,105.84664939999993,1,1,1,NULL,3,1,NULL,NULL,NULL,"2013-12-06 10:02:18",0,"2018-06-08 10:08:17"
324,"Hàng Cót",3,2,NULL,0,NULL,NULL,NULL,21.0375407,105.84715340000002,1,1,1,NULL,3,1,NULL,NULL,NULL,"2013-12-06 10:02:31",0,"2018-06-08 10:08:17"
325,"Hàng Chĩnh",3,2,NULL,0,NULL,NULL,NULL,21.0355686,105.8538072,1,1,1,NULL,3,1,NULL,NULL,NULL,"2013-12-06 10:02:38",0,"2018-06-08 10:08:17"
326,"Hàng Chiếu",3,2,NULL,0,NULL,NULL,NULL,21.0372114,105.85141550000003,1,1,1,NULL,3,1,NULL,NULL,NULL,"2013-12-06 10:02:45",0,"2018-06-08 10:08:17"
327,"Hàng Cân",3,2,NULL,0,NULL,NULL,NULL,21.0346407,105.84970670000007,1,1,1,NULL,3,1,NULL,NULL,NULL,"2013-12-06 10:02:52",0,"2018-06-08 10:08:17"
328,"Hàng Buồm",3,2,NULL,0,NULL,NULL,NULL,21.0355832,105.85178139999994,1,1,1,NULL,3,1,NULL,NULL,NULL,"2013-12-06 10:03:08",0,"2018-06-08 10:08:17"
329,"Hàng Bông",3,2,NULL,0,NULL,NULL,NULL,21.0288979,105.84590980000007,1,1,1,NULL,3,1,NULL,NULL,NULL,"2013-12-06 10:03:14",0,"2018-06-08 10:08:17"
330,"Hàng Bè",3,2,NULL,0,NULL,NULL,NULL,21.033041,105.8537576,1,1,1,NULL,3,1,NULL,NULL,NULL,"2013-12-06 10:03:20",0,"2018-06-08 10:08:17"
331,"Đinh Tiên Hoàng",3,2,NULL,0,NULL,NULL,NULL,21.0283616,105.8537288,1,1,1,NULL,3,1,NULL,NULL,NULL,"2013-12-06 10:03:31",0,"2018-06-08 10:08:17"
332,"Đinh Lễ",3,2,NULL,0,NULL,NULL,NULL,21.0256878,105.85455810000008,1,1,1,NULL,3,1,NULL,NULL,NULL,"2013-12-06 10:03:41",0,"2018-06-08 10:08:17"
333,"Đào Duy Từ",3,2,NULL,0,NULL,NULL,NULL,21.0370333,105.85229959999992,1,1,1,NULL,3,1,NULL,NULL,NULL,"2013-12-06 10:03:55",0,"2018-06-08 10:08:17"
334,"Bát Đàn",3,2,NULL,0,NULL,NULL,NULL,21.0337382,105.84699509999996,1,1,1,NULL,3,1,NULL,NULL,NULL,"2013-12-06 10:04:02",0,"2018-06-08 10:08:17"
335,"Bảo Linh",3,2,NULL,0,NULL,NULL,NULL,21.037241,105.85466450000001,1,1,1,NULL,3,1,NULL,NULL,NULL,"2013-12-06 10:04:09",0,"2018-06-08 10:08:17"
336,"Bà Triệu",3,2,NULL,0,NULL,NULL,NULL,21.021611,105.85026040000002,1,1,1,NULL,3,1,NULL,NULL,NULL,"2013-12-06 10:04:16",0,"2018-06-08 10:08:17"
337,"Ấu Triệu",3,2,NULL,0,NULL,NULL,NULL,21.0286733,105.84845419999999,1,1,1,NULL,3,1,NULL,NULL,NULL,"2013-12-06 10:04:24",0,"2018-06-08 10:08:17"
338,"Trần Quang Khải",3,2,NULL,0,NULL,NULL,NULL,21.0293249,105.85754359999999,1,1,1,NULL,3,1,NULL,NULL,NULL,"2013-12-06 10:04:30",0,"2018-06-08 10:08:17"
339,"Trần Nhật Duật",3,2,NULL,0,NULL,NULL,NULL,21.0378399,105.85289599999999,1,1,1,NULL,3,1,NULL,NULL,NULL,"2013-12-06 10:04:37",0,"2018-06-08 10:08:17"
340,"Trần Khánh Dư",3,2,NULL,0,NULL,NULL,NULL,21.0219723,105.8614503,1,1,1,NULL,3,1,NULL,NULL,NULL,"2013-12-06 10:04:44",0,"2018-06-08 10:08:17"
341,"Lê Duẩn",3,2,NULL,0,NULL,NULL,NULL,21.0265127,105.84151539999993,1,1,1,NULL,3,1,NULL,NULL,NULL,"2013-12-06 10:04:51",0,"2018-06-08 10:08:17"
342,"Hồng Hà",3,2,NULL,0,NULL,NULL,NULL,21.0278336,105.85862650000001,1,1,1,NULL,3,1,NULL,NULL,NULL,"2013-12-06 10:04:57",0,"2018-06-08 10:08:17"
343,"Bát Sứ",3,2,NULL,0,NULL,NULL,NULL,21.0343604,105.84737829999995,1,1,1,NULL,3,1,NULL,NULL,NULL,"2013-12-06 10:05:04",0,"2018-06-08 10:08:17"
344,"Cầu Đông",3,2,NULL,0,NULL,NULL,NULL,21.0378576,105.84998580000001,1,1,1,NULL,3,1,NULL,NULL,NULL,"2013-12-06 10:05:10",0,"2018-06-08 10:08:17"
345,"Đặng Thái Thân",3,2,NULL,0,NULL,NULL,NULL,21.0230235,105.85850490000007,1,1,1,NULL,3,1,NULL,NULL,NULL,"2013-12-06 10:05:18",0,"2018-06-08 10:08:17"
346,"Dã Tượng",3,2,NULL,0,NULL,NULL,NULL,21.0235577,105.8466042,1,1,1,NULL,3,1,NULL,NULL,NULL,"2013-12-06 10:05:43",0,"2018-06-08 10:08:17"
347,"Cửa Đông",3,2,NULL,0,NULL,NULL,NULL,21.0329168,105.84554279999998,1,1,1,NULL,3,1,NULL,NULL,NULL,"2013-12-06 10:05:52",0,"2018-06-08 10:08:17"
348,"Cửa Nam",3,2,NULL,0,NULL,NULL,NULL,21.0252277,105.84260710000001,1,1,1,NULL,3,1,NULL,NULL,NULL,"2013-12-06 10:05:59",0,"2018-06-08 10:08:17"
349,"Cổng Đục",3,2,NULL,0,NULL,NULL,NULL,21.0363315,105.84675909999999,1,1,1,NULL,3,1,NULL,NULL,NULL,"2013-12-06 10:06:10",0,"2018-06-08 10:08:17"
350,"Cổ Tân",3,2,NULL,0,NULL,NULL,NULL,21.0251363,105.85774939999999,1,1,1,NULL,3,1,NULL,NULL,NULL,"2013-12-06 10:06:18",0,"2018-06-08 10:08:17"
351,"Chân Cầm",3,2,NULL,0,NULL,NULL,NULL,21.0302539,105.84824149999997,1,1,1,NULL,3,1,NULL,NULL,NULL,"2013-12-06 10:06:29",0,"2018-06-08 10:08:17"
352,"Chả Cá",3,2,NULL,0,NULL,NULL,NULL,21.0364083,105.84883230000003,1,1,1,NULL,3,1,NULL,NULL,NULL,"2013-12-06 10:06:36",0,"2018-06-08 10:08:17"
353,"Cầu Gỗ",3,2,NULL,0,NULL,NULL,NULL,21.0322371,105.8528235,1,1,1,NULL,3,1,NULL,NULL,NULL,"2013-12-06 10:06:46",0,"2018-06-08 10:08:17"
354,"Ngô Quyền",3,2,NULL,0,NULL,NULL,NULL,21.0198547,105.85349380000002,1,1,1,NULL,3,1,NULL,NULL,NULL,"2017-09-20 17:40:33",0,"2018-06-08 10:08:17"
355,"Hàng Đồng",3,2,NULL,0,NULL,NULL,NULL,21.0358561,105.84764840000003,1,1,1,NULL,3,1,NULL,NULL,NULL,"2013-12-06 10:07:04",0,"2018-06-08 10:08:17"
356,"Hàng Quạt",3,2,NULL,0,NULL,NULL,NULL,21.0329653,105.8499792,1,1,1,NULL,3,1,NULL,NULL,NULL,"2013-12-06 10:07:20",0,"2018-06-08 10:08:17"
357,"Hàng Mành",3,2,NULL,0,NULL,NULL,NULL,21.0315783,105.84839299999999,1,1,1,NULL,3,1,NULL,NULL,NULL,"2013-12-06 10:07:29",0,"2018-06-08 10:08:17"
358,"Hàng Mã",3,2,NULL,0,NULL,NULL,NULL,21.0375904,105.84590980000007,1,1,1,NULL,3,1,NULL,NULL,NULL,"2013-12-06 10:07:37",0,"2018-06-08 10:08:17"
359,"Hàng Lược",3,2,NULL,0,NULL,NULL,NULL,21.037771,105.84796069999993,1,1,1,NULL,3,1,NULL,NULL,NULL,"2013-12-06 10:07:46",0,"2018-06-08 10:08:17"
360,"Hàng Khoai",3,2,NULL,0,NULL,NULL,NULL,21.039202,105.85061870000004,1,1,1,NULL,3,1,NULL,NULL,NULL,"2013-12-06 10:07:52",0,"2018-06-08 10:08:17"
361,"Hàng Khay",3,2,NULL,0,NULL,NULL,NULL,21.0256805,105.85245650000002,1,1,1,NULL,3,1,NULL,NULL,NULL,"2013-12-06 10:07:59",0,"2018-06-08 10:08:17"
362,"Hàng Giấy",3,2,NULL,0,NULL,NULL,NULL,21.0396878,105.84796919999997,1,1,1,NULL,3,1,NULL,NULL,NULL,"2013-12-06 10:08:05",0,"2018-06-08 10:08:17"
363,"Nhà Chung",3,2,NULL,0,NULL,NULL,NULL,21.0266304,105.85046799999998,1,1,1,NULL,3,1,NULL,NULL,NULL,"2013-12-06 10:08:12",0,"2018-06-08 10:08:17"
364,"Hàng Vôi",3,2,NULL,0,NULL,NULL,NULL,21.0298094,105.8569996,1,1,1,NULL,3,1,NULL,NULL,NULL,"2013-12-06 10:08:19",0,"2018-06-08 10:08:17"
365,"Hàng Tre",3,2,NULL,0,NULL,NULL,NULL,21.031805,105.85571200000004,1,1,1,NULL,3,1,NULL,NULL,NULL,"2013-12-06 10:08:26",0,"2018-06-08 10:08:17"
366,"Ngõ Trạm",3,2,NULL,0,NULL,NULL,NULL,21.0310037,105.84627419999993,1,1,1,NULL,3,1,NULL,NULL,NULL,"2013-12-06 10:08:39",0,"2018-06-08 10:08:17"
367,"Hàng Nón",3,2,NULL,0,NULL,NULL,NULL,21.0325591,105.84728510000002,1,1,1,NULL,3,1,NULL,NULL,NULL,"2013-12-06 10:08:46",0,"2018-06-08 10:08:17"
368,"Mã Mây",3,2,NULL,0,NULL,NULL,NULL,21.0359835,105.85308780000003,1,1,1,NULL,3,1,NULL,NULL,NULL,"2013-12-06 10:08:53",0,"2018-06-08 10:08:17"
369,"Hàng Thùng",3,2,NULL,0,NULL,NULL,NULL,21.032202,105.85465550000004,1,1,1,NULL,3,1,NULL,NULL,NULL,"2013-12-06 10:08:59",0,"2018-06-08 10:08:17"
370,"Nhà Thờ",3,2,NULL,0,NULL,NULL,NULL,21.0288786,105.84951909999995,1,1,1,NULL,3,1,NULL,NULL,NULL,"2013-12-06 10:09:05",0,"2018-06-08 10:08:17"
371,"Hàng Ngang",3,2,NULL,0,NULL,NULL,NULL,21.0348011,105.85030890000007,1,1,1,NULL,3,1,NULL,NULL,NULL,"2013-12-06 10:09:11",0,"2018-06-08 10:08:17"
372,"Hàng Muối",3,2,NULL,0,NULL,NULL,NULL,21.034583,105.85461699999996,1,1,1,NULL,3,1,NULL,NULL,NULL,"2013-12-06 10:09:18",0,"2018-06-08 10:08:17"
373,"Hàng Mắm",3,2,NULL,0,NULL,NULL,NULL,21.0338018,105.8543846,1,1,1,NULL,3,1,NULL,NULL,NULL,"2013-12-06 10:09:28",0,"2018-06-08 10:08:17"
374,"Lò Sũ",3,2,NULL,0,NULL,NULL,NULL,21.0313964,105.85518560000003,1,1,1,NULL,3,1,NULL,NULL,NULL,"2013-12-06 10:09:35",0,"2018-06-08 10:08:17"
375,"Ngõ Gạch",3,2,NULL,0,NULL,NULL,NULL,21.0363303,105.85043100000007,1,1,1,NULL,3,1,NULL,NULL,NULL,"2013-12-06 10:09:41",0,"2018-06-08 10:08:17"
376,"Lý Thường Kiệt",3,2,NULL,0,NULL,NULL,NULL,21.0235326,105.85001590000002,1,1,1,NULL,3,1,NULL,NULL,NULL,"2013-12-06 10:10:15",0,"2018-06-08 10:08:17"
377,"Hỏa Lò",3,2,NULL,0,NULL,NULL,NULL,21.0253285,105.84667319999994,1,1,1,NULL,3,1,NULL,NULL,NULL,"2013-12-06 10:10:22",0,"2018-06-08 10:08:17"
378,Huế,3,2,NULL,0,NULL,NULL,NULL,21.0182528,105.85156899999993,1,1,1,NULL,3,1,NULL,NULL,NULL,"2013-12-06 10:17:15",0,"2018-06-08 10:08:17"
379,"Lý Quốc Sư",3,2,NULL,0,NULL,NULL,NULL,21.0308083,105.8487275,1,1,1,NULL,3,1,NULL,NULL,NULL,"2013-12-06 10:17:21",0,"2018-06-08 10:08:17"
380,"Lê Thánh Tông",3,2,NULL,0,NULL,NULL,NULL,21.0216181,105.85793519999993,1,1,1,NULL,3,1,NULL,NULL,NULL,"2013-12-06 10:17:27",0,"2018-06-08 10:08:17"
381,"Hàng Đường",3,2,NULL,0,NULL,NULL,NULL,21.0358552,105.84985570000003,1,1,1,NULL,3,1,NULL,NULL,NULL,"2013-12-06 10:17:33",0,"2018-06-08 10:08:17"
382,"Lò Rèn",3,2,NULL,0,NULL,NULL,NULL,21.0362337,105.84770649999996,1,1,1,NULL,3,1,NULL,NULL,NULL,"2013-12-06 10:17:39",0,"2018-06-08 10:08:17"
383,"Lương Ngọc Quyến",3,2,NULL,0,NULL,NULL,NULL,21.0348087,105.8529251,1,1,1,NULL,3,1,NULL,NULL,NULL,"2013-12-06 10:17:44",0,"2018-06-08 10:08:17"
384,"Lương Văn Can",3,2,NULL,0,NULL,NULL,NULL,21.0327192,105.85051309999994,1,1,1,NULL,3,1,NULL,NULL,NULL,"2013-12-06 10:17:53",0,"2018-06-08 10:08:17"
385,"Lý Đạo Thành",3,2,NULL,0,NULL,NULL,NULL,21.0253516,105.85743419999994,1,1,1,NULL,3,1,NULL,NULL,NULL,"2013-12-06 10:17:59",0,"2018-06-08 10:08:17"
386,"Lý Nam Đế",3,2,NULL,0,NULL,NULL,NULL,21.037766,105.84553870000002,1,1,1,NULL,3,1,NULL,NULL,NULL,"2013-12-06 10:18:05",0,"2018-06-08 10:08:17"
387,"Hàng Điếu",3,2,NULL,0,NULL,NULL,NULL,21.0331851,105.84694650000006,1,1,1,NULL,3,1,NULL,NULL,NULL,"2013-12-06 10:18:11",0,"2018-06-08 10:08:17"
388,"Lý Thái Tổ",3,2,NULL,0,NULL,NULL,NULL,21.0309577,105.85471729999995,1,1,1,NULL,3,1,NULL,NULL,NULL,"2013-12-06 10:18:17",0,"2018-06-08 10:08:17"
389,"Lê Văn Linh",3,2,NULL,0,NULL,NULL,NULL,21.0373599,105.8461704,1,1,1,NULL,3,1,NULL,NULL,NULL,"2013-12-06 10:18:23",0,"2018-06-08 10:08:17"
390,"Lãn Ông",3,2,NULL,0,NULL,NULL,NULL,21.0353069,105.84883680000007,1,1,1,NULL,3,1,NULL,NULL,NULL,"2013-12-06 10:18:29",0,"2018-06-08 10:08:17"
391,"Liên Trì",3,2,NULL,0,NULL,NULL,NULL,21.020697,105.84610840000005,1,1,1,NULL,3,1,NULL,NULL,NULL,"2013-12-06 10:18:35",0,"2018-06-08 10:08:17"
392,"Lê Lai",3,2,NULL,0,NULL,NULL,NULL,21.0276724,105.85705729999995,1,1,1,NULL,3,1,NULL,NULL,NULL,"2013-12-06 10:18:42",0,"2018-06-08 10:08:17"
393,"Lê Phụng Hiểu",3,2,NULL,0,NULL,NULL,NULL,21.0260556,105.85716980000007,1,1,1,NULL,3,1,NULL,NULL,NULL,"2013-12-06 10:18:47",0,"2018-06-08 10:08:17"
394,"Lê Thạch",3,2,NULL,0,NULL,NULL,NULL,21.0271736,105.85460450000005,1,1,1,NULL,3,1,NULL,NULL,NULL,"2013-12-06 10:18:54",0,"2018-06-08 10:08:17"
395,"Lê Thái Tổ",3,2,NULL,0,NULL,NULL,NULL,21.0283053,105.85130809999998,1,1,1,NULL,3,1,NULL,NULL,NULL,"2013-12-06 10:19:02",0,"2018-06-08 10:08:17"
396,"Hàng Gai",3,2,NULL,0,NULL,NULL,NULL,21.0319133,105.84847860000002,1,1,1,NULL,3,1,NULL,NULL,NULL,"2013-12-06 10:19:08",0,"2018-06-08 10:08:17"
397,"Hồ Hoàn Kiếm",3,2,NULL,0,NULL,NULL,NULL,21.0286669,105.85214840000003,1,1,1,NULL,3,1,NULL,NULL,NULL,"2013-12-06 10:19:14",0,"2018-06-08 10:08:17"
398,"Hàng Gà",3,2,NULL,0,NULL,NULL,NULL,21.0349813,105.84702859999993,1,1,1,NULL,3,1,NULL,NULL,NULL,"2013-12-06 10:19:21",0,"2018-06-08 10:08:17"
399,"Trương Định",8,2,NULL,0,NULL,NULL,NULL,20.9946437,105.84811160000004,1,1,1,NULL,8,1,NULL,NULL,NULL,"2013-12-06 10:19:26",0,"2018-06-08 10:08:17"
400,"Giải Phóng",8,2,NULL,0,NULL,NULL,NULL,21.000429,105.84139870000001,1,1,1,NULL,8,1,NULL,NULL,NULL,"2017-06-28 16:01:57",0,"2018-06-08 10:08:17"
401,"Phạm Đình Hổ",8,2,NULL,0,NULL,NULL,NULL,21.0161916,105.85765330000004,1,1,1,NULL,8,1,NULL,NULL,NULL,"2013-12-06 10:19:39",0,"2018-06-08 10:08:17"
402,"Thái Phiên",8,2,NULL,0,NULL,NULL,NULL,21.0105545,105.85024320000002,1,1,1,NULL,8,1,NULL,NULL,NULL,"2013-12-06 10:19:45",0,"2018-06-08 10:08:17"
403,"Hồ Xuân Hương",8,2,NULL,0,NULL,NULL,NULL,21.0182398,105.84833920000005,1,1,1,NULL,8,1,NULL,NULL,NULL,"2013-12-06 10:36:34",0,"2018-06-08 10:08:17"
404,"Võ Thị Sáu",8,2,NULL,0,NULL,NULL,NULL,21.0074033,105.85465640000007,1,1,1,NULL,8,1,NULL,NULL,NULL,"2013-12-06 10:37:09",0,"2018-06-08 10:08:17"
405,"Kim Đồng",9,2,NULL,0,NULL,NULL,NULL,20.983714,105.84277640000005,1,1,1,NULL,9,1,NULL,NULL,NULL,"2013-11-18 10:19:47",0,"2018-06-08 10:08:17"
406,"Đoàn Trần Nghiệp",8,2,NULL,0,NULL,NULL,NULL,21.0118226,105.84980389999998,1,1,1,NULL,8,1,NULL,NULL,NULL,"2013-12-06 10:37:17",0,"2018-06-08 10:08:17"
407,"Thể Giao",8,2,NULL,0,NULL,NULL,NULL,21.01345,105.84750159999999,1,1,1,NULL,8,1,NULL,NULL,NULL,"2013-12-06 10:37:24",0,"2018-06-08 10:08:17"
408,"Bùi Thị Xuân",8,2,NULL,0,NULL,NULL,NULL,21.0150437,105.85068049999995,1,1,1,NULL,8,1,NULL,NULL,NULL,"2013-12-06 10:37:31",0,"2018-06-08 10:08:17"
409,"Lê Ngọc Hân",8,2,NULL,0,NULL,NULL,NULL,21.0163225,105.85529589999999,1,1,1,NULL,8,1,NULL,NULL,NULL,"2013-12-06 10:37:38",0,"2018-06-08 10:08:17"
410,"Phù Đổng Thiên Vương",8,2,NULL,0,NULL,NULL,NULL,21.0153228,105.85375249999993,1,1,1,NULL,8,1,NULL,NULL,NULL,"2013-12-06 10:37:45",0,"2018-06-08 10:08:17"
411,"Thi Sách",8,2,NULL,0,NULL,NULL,NULL,21.0169132,105.85407740000005,1,1,1,NULL,8,1,NULL,NULL,NULL,"2013-12-06 10:37:54",0,"2018-06-08 10:08:17"
412,"Lê Duẩn",8,2,NULL,0,NULL,NULL,NULL,21.0210397,105.8412932,1,1,1,NULL,8,1,NULL,NULL,NULL,"2013-12-06 10:38:01",0,"2018-06-08 10:08:17"
413,"Nguyễn Thượng Hiền",8,2,NULL,0,NULL,NULL,NULL,21.0188939,105.84214680000002,1,1,1,NULL,8,1,NULL,NULL,NULL,"2013-12-06 10:38:21",0,"2018-06-08 10:08:17"
414,"Nguyễn Quyền",8,2,NULL,0,NULL,NULL,NULL,21.0181729,105.84264860000008,1,1,1,NULL,8,1,NULL,NULL,NULL,"2013-12-06 10:38:30",0,"2018-06-08 10:08:17"
415,"Đỗ Hành",8,2,NULL,0,NULL,NULL,NULL,21.0198738,105.84250369999995,1,1,1,NULL,8,1,NULL,NULL,NULL,"2013-11-22 09:20:59",0,"2018-06-08 10:08:17"
416,"Vũ Hữu Lợi",8,2,NULL,0,NULL,NULL,NULL,21.0193772,105.84200620000001,1,1,1,NULL,8,1,NULL,NULL,NULL,"2013-12-06 10:38:39",0,"2018-06-08 10:08:17"
417,"Quang Trung",8,2,NULL,0,NULL,NULL,NULL,21.0200981,105.84801519999996,1,1,1,NULL,8,1,NULL,NULL,NULL,"2014-05-12 10:31:32",0,"2018-06-08 10:08:17"
418,"Nguyễn Đình Chiểu",8,2,NULL,0,NULL,NULL,NULL,21.0152427,105.84720909999999,1,1,1,NULL,8,1,NULL,NULL,NULL,"2013-12-02 15:21:00",0,"2018-06-08 10:08:17"
419,"Trần Xuân Soạn",8,2,NULL,0,NULL,NULL,NULL,21.0168297,105.85355759999993,1,1,1,NULL,8,1,NULL,NULL,NULL,"2013-12-06 10:38:56",0,"2018-06-08 10:08:17"
420,"Mai Hắc Đế",8,2,NULL,0,NULL,NULL,NULL,21.0126555,105.85098010000002,1,1,1,NULL,8,1,NULL,NULL,NULL,"2013-12-06 10:52:10",0,"2018-06-08 10:08:17"
421,"Tuệ Tĩnh",8,2,NULL,0,NULL,NULL,NULL,21.0151385,105.84948899999995,1,1,1,NULL,8,1,NULL,NULL,NULL,"2013-12-06 10:52:17",0,"2018-06-08 10:08:17"
422,"Trần Khánh Dư",8,2,NULL,0,NULL,NULL,NULL,21.0221463,105.86138779999999,1,1,1,NULL,8,1,NULL,NULL,NULL,"2013-12-06 10:52:24",0,"2018-06-08 10:08:17"
423,"Nguyễn Khoái",8,2,NULL,0,NULL,NULL,NULL,20.9889112,105.8940311,1,1,1,NULL,8,1,NULL,NULL,NULL,"2014-04-18 11:54:56",0,"2018-06-08 10:08:17"
424,"Trần Hưng Đạo",8,2,NULL,0,NULL,NULL,NULL,21.0251745,105.84964719999994,1,1,1,NULL,8,1,NULL,NULL,NULL,"2013-12-06 10:52:39",0,"2018-06-08 10:08:17"
425,"Hàn Thuyên",3,2,NULL,0,NULL,NULL,NULL,21.0186486,105.85666979999996,1,1,1,NULL,3,1,NULL,NULL,NULL,"2013-12-06 10:52:44",0,"2018-06-08 10:08:17"
426,"Ngô Thì Nhậm",8,2,NULL,0,NULL,NULL,NULL,21.0166103,105.85324939999998,1,1,1,NULL,8,1,NULL,NULL,NULL,"2013-12-06 10:52:52",0,"2018-06-08 10:08:17"
427,"Tạ Quang Bửu",8,2,NULL,0,NULL,NULL,NULL,21.0064606,105.84725430000003,1,1,1,NULL,8,1,NULL,NULL,NULL,"2013-12-06 10:52:57",0,"2018-06-08 10:08:17"
428,"Lê Thanh Nghị",8,2,NULL,0,NULL,NULL,NULL,21.0033531,105.84959589999994,1,1,1,NULL,8,1,NULL,NULL,NULL,"2013-12-06 10:53:18",0,"2018-06-08 10:08:17"
429,"Bùi Ngọc Dương",8,2,NULL,0,NULL,NULL,NULL,21.0021824,105.85376410000003,1,1,1,NULL,8,1,NULL,NULL,NULL,"2013-12-06 10:53:31",0,"2018-06-08 10:08:17"
430,"Thanh Nhàn",8,2,NULL,0,NULL,NULL,NULL,21.0053964,105.85691930000007,1,1,1,NULL,8,1,NULL,NULL,NULL,"2013-12-06 10:53:38",0,"2018-06-08 10:08:17"
431,"Bạch Mai",8,2,NULL,0,NULL,NULL,NULL,21.0008143,105.85178139999994,1,1,1,NULL,8,1,NULL,NULL,NULL,"2013-12-06 10:53:45",0,"2018-06-08 10:08:17"
432,"Trần Nhân Tông",8,2,NULL,0,NULL,NULL,NULL,21.0173392,105.84433020000006,1,1,1,NULL,8,1,NULL,NULL,NULL,"2013-12-06 10:54:29",0,"2018-06-08 10:08:17"
433,"Nguyễn Du",8,2,NULL,0,NULL,NULL,NULL,21.0187567,105.84590980000007,1,1,1,NULL,8,1,NULL,NULL,NULL,"2013-12-06 10:54:39",0,"2018-06-08 10:08:17"
434,"Đại Cồ Việt",8,2,NULL,0,NULL,NULL,NULL,21.0080299,105.8467561,1,1,1,NULL,8,1,NULL,NULL,NULL,"2013-12-06 10:54:48",0,"2018-06-08 10:08:17"
435,"Nguyễn Công Trứ",8,2,NULL,0,NULL,NULL,NULL,21.0138596,105.8546043,1,1,1,NULL,8,1,NULL,NULL,NULL,"2013-12-06 10:54:57",0,"2018-06-08 10:08:17"
436,"Tô Hiến Thành",8,2,NULL,0,NULL,NULL,NULL,21.0133406,105.84914890000005,1,1,1,NULL,8,1,NULL,NULL,NULL,"2013-12-06 10:55:09",0,"2018-06-08 10:08:17"
437,"Thiền Quang",8,2,NULL,0,NULL,NULL,NULL,21.0194743,105.84331299999997,1,1,1,NULL,8,1,NULL,NULL,NULL,"2013-12-06 10:55:17",0,"2018-06-08 10:08:17"
438,"Minh Khai",11,2,NULL,0,NULL,NULL,NULL,20.9713504,105.77816159999998,1,1,1,NULL,11,1,NULL,NULL,NULL,"2014-02-19 13:08:34",0,"2018-06-08 10:08:17"
439,"Trần Bình Trọng",8,2,NULL,0,NULL,NULL,NULL,21.0181504,105.84388109999998,1,1,1,NULL,8,1,NULL,NULL,NULL,"2013-12-06 10:55:32",0,"2018-06-08 10:08:17"
440,"Yết Kiêu",8,2,NULL,0,NULL,NULL,NULL,21.0195783,105.84240180000006,1,1,1,NULL,8,1,NULL,NULL,NULL,"2013-12-06 10:55:40",0,"2018-06-08 10:08:17"
441,"Lê Văn Hưu",8,2,NULL,0,NULL,NULL,NULL,21.0180502,105.85288519999995,1,1,1,NULL,8,1,NULL,NULL,NULL,"2013-12-06 10:55:48",0,"2018-06-08 10:08:17"
442,"Hòa Mã",8,2,NULL,0,NULL,NULL,NULL,21.0153506,105.85402939999994,1,1,1,NULL,8,1,NULL,NULL,NULL,"2013-12-06 10:55:54",0,"2018-06-08 10:08:17"
443,"Đống Mác",8,2,NULL,0,NULL,NULL,NULL,21.0112392,105.86022230000003,1,1,1,NULL,8,1,NULL,NULL,NULL,"2013-12-06 10:56:13",0,"2018-06-08 10:08:17"
444,"Cảm Hội",8,2,NULL,0,NULL,NULL,NULL,21.0110947,105.86061070000005,1,1,1,NULL,8,1,NULL,NULL,NULL,"2013-12-06 10:56:20",0,"2018-06-08 10:08:17"
445,"Nguyễn Cao",8,2,NULL,0,NULL,NULL,NULL,21.0122364,105.86051079999993,1,1,1,NULL,8,1,NULL,NULL,NULL,"2013-12-06 10:56:28",0,"2018-06-08 10:08:17"
446,"Nguyễn Huy Tự",8,2,NULL,0,NULL,NULL,NULL,21.013759,105.86095490000002,1,1,1,NULL,8,1,NULL,NULL,NULL,"2013-12-06 10:56:34",0,"2018-06-08 10:08:17"
447,"Lò Đúc",8,2,NULL,0,NULL,NULL,NULL,21.0127725,105.85829690000003,1,1,1,NULL,8,1,NULL,NULL,NULL,"2013-12-06 10:56:40",0,"2018-06-08 10:08:17"
448,"Tăng Bạt Hổ",8,2,NULL,0,NULL,NULL,NULL,21.0147579,105.85907889999999,1,1,1,NULL,8,1,NULL,NULL,NULL,"2013-12-06 10:56:47",0,"2018-06-08 10:08:17"
449,"Trần Thánh Tông",8,2,NULL,0,NULL,NULL,NULL,21.0142317,105.85986460000004,1,1,1,NULL,8,1,NULL,NULL,NULL,"2013-12-06 10:56:53",0,"2018-06-08 10:08:17"
450,"Ngõ Huế",8,2,NULL,0,NULL,NULL,NULL,21.014775,105.85243509999998,1,1,1,NULL,8,1,NULL,NULL,NULL,"2014-02-19 13:22:07",0,"2018-06-08 10:08:17"
451,"Đầm Trấu",8,2,NULL,0,NULL,NULL,NULL,21.0111397,105.86452600000007,1,1,1,NULL,8,1,NULL,NULL,NULL,"2013-11-29 14:57:30",0,"2018-06-08 10:08:17"
452,"Dốc thọ Lão",8,2,NULL,0,NULL,NULL,NULL,21.0114001,105.85761660000003,1,1,1,NULL,8,1,NULL,NULL,NULL,"2013-12-06 10:57:09",0,"2018-06-08 10:08:17"
453,"Hương Viên",8,2,NULL,0,NULL,NULL,NULL,21.0118755,105.85572619999994,1,1,1,NULL,8,1,NULL,NULL,NULL,"2013-12-06 10:57:23",0,"2018-06-08 10:08:17"
454,"Đồng Nhân",8,2,NULL,0,NULL,NULL,NULL,21.0132762,105.85526189999996,1,1,1,NULL,8,1,NULL,NULL,NULL,"2013-12-06 10:57:32",0,"2018-06-08 10:08:17"
455,"Nguyễn Bỉnh Khiêm",8,2,NULL,0,NULL,NULL,NULL,21.0160947,105.84839390000002,1,1,1,NULL,8,1,NULL,NULL,NULL,"2013-12-06 10:57:40",0,"2018-06-08 10:08:17"
456,"Bạch Đằng",8,2,NULL,0,NULL,NULL,NULL,21.0132507,105.86572739999997,1,1,1,NULL,8,1,NULL,NULL,NULL,"2013-12-06 10:57:51",0,"2018-06-08 10:08:17"
457,"Tây Kết",8,2,NULL,0,NULL,NULL,NULL,21.0151587,105.86436179999998,1,1,1,NULL,8,1,NULL,NULL,NULL,"2013-12-06 10:57:59",0,"2018-06-08 10:08:17"
458,"Vạn Kiếp",8,2,NULL,0,NULL,NULL,NULL,21.018861,105.86352280000006,1,1,1,NULL,8,1,NULL,NULL,NULL,"2013-12-06 10:58:16",0,"2018-06-08 10:08:17"
459,"Đại La",8,2,NULL,0,NULL,NULL,NULL,21.0040872,105.85545130000003,1,1,1,NULL,8,1,NULL,NULL,NULL,"2013-12-06 10:58:28",0,"2018-06-08 10:08:17"
460,"Yec Xanh",8,2,NULL,0,NULL,NULL,NULL,21.0134591,105.860681,1,1,1,NULL,8,1,NULL,NULL,NULL,"2013-12-06 11:11:46",0,"2018-06-08 10:08:17"
461,"Vân Hồ",8,2,NULL,0,NULL,NULL,NULL,21.0121317,105.84618190000003,1,1,1,NULL,8,1,NULL,NULL,NULL,"2013-12-06 11:12:02",0,"2018-06-08 10:08:17"
462,"Phố Huế",8,2,NULL,0,NULL,NULL,NULL,21.0108156,105.85324939999998,1,1,1,NULL,8,1,NULL,NULL,NULL,"2013-12-06 11:12:11",0,"2018-06-08 10:08:17"
463,"Lương Yên",8,2,NULL,0,NULL,NULL,NULL,21.0107342,105.86287730000004,1,1,1,NULL,8,1,NULL,NULL,NULL,"2018-05-03 10:07:55",0,"2018-06-08 10:08:17"
464,"Ngô Quyền, Hàng Bài",8,2,NULL,0,NULL,NULL,NULL,21.0198547,105.85349380000002,1,1,1,NULL,8,1,NULL,NULL,NULL,"2017-09-20 17:40:59",0,"2018-06-08 10:08:17"
465,"Bà Triệu",8,2,NULL,0,NULL,NULL,NULL,21.014237,105.8491348,1,1,1,NULL,8,1,NULL,NULL,NULL,"2013-12-06 11:12:32",0,"2018-06-08 10:08:17"
466,"Yên Bái",8,2,NULL,0,NULL,NULL,NULL,21.0135903,105.85234730000002,1,1,1,NULL,8,1,NULL,NULL,NULL,"2013-12-06 11:12:51",0,"2018-06-08 10:08:17"
467,"Thịnh yên",8,2,NULL,0,NULL,NULL,NULL,21.0099441,105.85283419999996,1,1,1,NULL,8,1,NULL,NULL,NULL,"2013-12-06 11:13:37",0,"2018-06-08 10:08:17"
468,"Chùa Vua",8,2,NULL,0,NULL,NULL,NULL,21.0100547,105.8539462,1,1,1,NULL,8,1,NULL,NULL,NULL,"2015-11-02 17:45:16",0,"2018-06-08 10:08:17"
469,"Vĩnh Tuy",8,2,NULL,0,NULL,NULL,NULL,20.9984853,105.86866350000003,1,1,1,NULL,8,1,NULL,NULL,NULL,"2013-12-06 11:13:51",0,"2018-06-08 10:08:17"
470,Vọng,8,2,NULL,0,NULL,NULL,NULL,20.9957261,105.84285420000003,1,1,1,NULL,8,1,NULL,NULL,NULL,"2013-12-06 11:13:59",0,"2018-06-08 10:08:17"
471,"Tam Trinh",8,2,NULL,0,NULL,NULL,NULL,20.983259,105.86633919999997,1,1,1,NULL,8,1,NULL,NULL,NULL,"2013-12-06 11:14:09",0,"2018-06-08 10:08:17"
472,"Lạc Trung",8,2,NULL,0,NULL,NULL,NULL,21.0029947,105.86567109999999,1,1,1,NULL,8,1,NULL,NULL,NULL,"2013-12-06 11:14:16",0,"2018-06-08 10:08:17"
473,"Hồng Mai",8,2,NULL,0,NULL,NULL,NULL,20.9987419,105.85495370000001,1,1,1,NULL,8,1,NULL,NULL,NULL,"2013-12-06 11:14:23",0,"2018-06-08 10:08:17"
474,"Hoa Lư",8,2,NULL,0,NULL,NULL,NULL,21.0098302,105.84778640000002,1,1,1,NULL,8,1,NULL,NULL,NULL,"2013-12-06 11:14:29",0,"2018-06-08 10:08:17"
475,"Lê Đại Hành",8,2,NULL,0,NULL,NULL,NULL,21.0123071,105.84517579999999,1,1,1,NULL,8,1,NULL,NULL,NULL,"2013-12-06 11:14:35",0,"2018-06-08 10:08:17"
476,"Trần Đại Nghĩa",8,2,NULL,0,NULL,NULL,NULL,20.99918,105.84566229999996,1,1,1,NULL,8,1,NULL,NULL,NULL,"2013-12-06 11:14:42",0,"2018-06-08 10:08:17"
477,"Trần Cao Vân",8,2,NULL,0,NULL,NULL,NULL,21.0110446,105.85376500000007,1,1,1,NULL,8,1,NULL,NULL,NULL,"2013-12-06 11:14:51",0,"2018-06-08 10:08:17"
478,"Lê Gia Định",8,2,NULL,0,NULL,NULL,NULL,21.0117517,105.85448080000003,1,1,1,NULL,8,1,NULL,NULL,NULL,"2013-12-06 11:15:18",0,"2018-06-08 10:08:17"
479,"Trần Khát Chân",8,2,NULL,0,NULL,NULL,NULL,21.0090503,105.85928319999994,1,1,1,NULL,8,1,NULL,NULL,NULL,"2013-12-04 11:11:43",0,"2018-06-08 10:08:17"
480,"Lê Quý Đôn",8,2,NULL,0,NULL,NULL,NULL,21.0131415,105.86106659999996,1,1,1,NULL,8,1,NULL,NULL,NULL,"2013-12-06 11:15:24",0,"2018-06-08 10:08:17"
481,"Mạc Thị Bưởi",8,2,NULL,0,NULL,NULL,NULL,21.0004646,105.86930089999998,1,1,1,NULL,8,1,NULL,NULL,NULL,"2013-12-06 11:15:31",0,"2018-06-08 10:08:17"
482,"Hàng Chuối",8,2,NULL,0,NULL,NULL,NULL,21.0156167,105.85798939999995,1,1,1,NULL,8,1,NULL,NULL,NULL,"2013-12-06 11:15:38",0,"2018-06-08 10:08:17"
483,"Nguyễn Hiền",8,2,NULL,0,NULL,NULL,NULL,21.0011736,105.84766190000005,1,1,1,NULL,8,1,NULL,NULL,NULL,"2013-12-06 11:15:45",0,"2018-06-08 10:08:17"
484,"Giảng Võ",7,2,NULL,0,NULL,NULL,NULL,21.0270609,105.8194896,1,1,1,NULL,7,1,NULL,NULL,NULL,"2013-12-06 11:15:50",0,"2018-06-08 10:08:17"
485,"Thanh Miến",7,2,NULL,0,NULL,NULL,NULL,21.0294219,105.83750809999992,1,1,1,NULL,7,1,NULL,NULL,NULL,"2013-12-06 11:16:03",0,"2018-06-08 10:08:17"
486,"La Thành nhỏ (Cạnh Xã Đàn)",7,2,NULL,0,NULL,NULL,NULL,21.0176183,105.83032789999993,1,1,1,NULL,7,1,NULL,NULL,NULL,"2013-12-06 11:16:09",0,"2018-06-08 10:08:17"
487,"Trần Quang Diệu",7,2,NULL,0,NULL,NULL,NULL,21.0153485,105.82434510000007,1,1,1,NULL,7,1,NULL,NULL,NULL,"2017-08-17 13:45:39",0,"2018-06-08 10:08:17"
488,"Láng Hạ",7,2,NULL,0,NULL,NULL,NULL,21.0153717,105.81288510000002,1,1,1,NULL,7,1,NULL,NULL,NULL,"2013-12-06 11:16:24",0,"2018-06-08 10:08:17"
489,"Kim Liên",7,2,NULL,0,NULL,NULL,NULL,21.0066938,105.83563479999998,1,1,1,NULL,7,1,NULL,NULL,NULL,"2013-12-06 11:16:32",0,"2018-06-08 10:08:17"
490,"Cát Linh",7,2,NULL,0,NULL,NULL,NULL,21.0289833,105.82976370000006,1,1,1,NULL,7,1,NULL,NULL,NULL,"2013-12-06 11:16:38",0,"2018-06-08 10:08:17"
491,"Lý Văn Phúc",7,2,NULL,0,NULL,NULL,NULL,21.0302119,105.83167309999999,1,1,1,NULL,7,1,NULL,NULL,NULL,"2013-12-06 11:16:45",0,"2018-06-08 10:08:17"
492,"Hàng Bột",7,2,NULL,0,NULL,NULL,NULL,21.0230486,105.83123139999998,1,1,1,NULL,7,1,NULL,NULL,NULL,"2013-12-06 11:16:52",0,"2018-06-08 10:08:17"
493,"Thái Thịnh 1",7,2,NULL,0,NULL,NULL,NULL,21.013253,105.81576339999992,1,1,1,NULL,7,1,NULL,NULL,NULL,"2013-12-06 11:16:58",0,"2018-06-08 10:08:17"
494,"Thái Thịnh 2",7,2,NULL,0,NULL,NULL,NULL,21.0112958,105.81651250000004,1,1,1,NULL,7,1,NULL,NULL,NULL,"2013-12-06 11:17:03",0,"2018-06-08 10:08:17"
495,"Vĩnh Hồ",7,2,NULL,0,NULL,NULL,NULL,21.0079593,105.81998350000003,1,1,1,NULL,7,1,NULL,NULL,NULL,"2013-12-06 11:17:11",0,"2018-06-08 10:08:17"
496,"Thịnh Quang",7,2,NULL,0,NULL,NULL,NULL,21.0083647,105.81802190000008,1,1,1,NULL,7,1,NULL,NULL,NULL,"2013-12-06 11:17:17",0,"2018-06-08 10:08:17"
497,"Đặng Tiến Đông",7,2,NULL,0,NULL,NULL,NULL,21.0144253,105.82160569999996,1,1,1,NULL,7,1,NULL,NULL,NULL,"2013-12-06 11:17:24",0,"2018-06-08 10:08:17"
498,"Nam Đồng",7,2,NULL,0,NULL,NULL,NULL,21.0143557,105.83123139999998,1,1,1,NULL,7,1,NULL,NULL,NULL,"2013-12-06 11:17:30",0,"2018-06-08 10:08:17"
499,"Võ Văn Dũng",7,2,NULL,0,NULL,NULL,NULL,21.0162751,105.82336220000002,1,1,1,NULL,7,1,NULL,NULL,NULL,"2013-12-06 11:17:37",0,"2018-06-08 10:08:17"
500,"Trung Tự",7,2,NULL,0,NULL,NULL,NULL,21.0042141,105.83123139999998,1,1,1,NULL,7,1,NULL,NULL,NULL,"2013-12-06 11:17:43",0,"2018-06-08 10:08:17"
501,"Xã Đàn 2",7,2,NULL,0,NULL,NULL,NULL,21.015197,105.83171749999997,1,1,1,NULL,7,1,NULL,NULL,NULL,"2016-02-27 09:52:36",0,"2018-06-08 10:08:17"
502,"Trúc Khê",7,2,NULL,0,NULL,NULL,NULL,21.01574,105.80899309999995,1,1,1,NULL,7,1,NULL,NULL,NULL,"2013-12-06 11:17:54",0,"2018-06-08 10:08:17"
503,"Đào Duy Anh",7,2,NULL,0,NULL,NULL,NULL,21.0078083,105.84034589999999,1,1,1,NULL,7,1,NULL,NULL,NULL,"2013-12-06 11:18:03",0,"2018-06-08 10:08:17"
504,"Mai Anh Tuấn",7,2,NULL,0,NULL,NULL,NULL,21.019169,105.82083560000001,1,1,1,NULL,7,1,NULL,NULL,NULL,"2013-11-30 14:17:50",0,"2018-06-08 10:08:17"
505,"Ngô Sĩ Liên",7,2,NULL,0,NULL,NULL,NULL,21.0271818,105.83871109999995,1,NULL,1,NULL,7,1,NULL,NULL,NULL,"2018-05-03 10:05:45",0,"2018-06-08 10:08:17"
506,"Ngô Tất Tố",7,2,NULL,0,NULL,NULL,NULL,21.0277214,105.83677999999998,1,1,1,NULL,7,1,NULL,NULL,NULL,"2013-12-06 11:18:20",0,"2018-06-08 10:08:17"
507,"Nguyên Hồng",7,2,NULL,0,NULL,NULL,NULL,21.0163109,105.81041930000004,1,1,1,NULL,7,1,NULL,NULL,NULL,"2013-12-06 11:18:30",0,"2018-06-08 10:08:17"
508,"Nguyễn Khuyến",7,2,NULL,0,NULL,NULL,NULL,21.0282201,105.83888139999999,1,1,1,NULL,7,1,NULL,NULL,NULL,"2013-12-06 11:18:36",0,"2018-06-08 10:08:17"
509,"Xã Đàn",7,2,NULL,0,NULL,NULL,NULL,21.0176183,105.83032789999993,1,1,1,NULL,7,1,NULL,NULL,NULL,"2013-12-06 11:18:42",0,"2018-06-08 10:08:17"
510,"Chùa Bộc",7,2,NULL,0,NULL,NULL,NULL,21.0076712,105.82800229999998,1,1,1,NULL,7,1,NULL,NULL,NULL,"2013-12-06 11:18:55",0,"2018-06-08 10:08:17"
511,"Thái Thịnh",7,2,NULL,0,NULL,NULL,NULL,21.0114561,105.81761860000006,1,1,1,NULL,7,1,NULL,NULL,NULL,"2013-12-06 11:19:05",0,"2018-06-08 10:08:17"
512,"Bích Câu",7,2,NULL,0,NULL,NULL,NULL,21.0274178,105.83226330000002,1,1,1,NULL,7,1,NULL,NULL,NULL,"2013-12-06 11:19:10",0,"2018-06-08 10:08:17"
513,"Lương Định Của",7,2,NULL,0,NULL,NULL,NULL,21.0069613,105.83515310000007,1,1,1,NULL,7,1,NULL,NULL,NULL,"2013-12-06 11:19:19",0,"2018-06-08 10:08:17"
514,"Kim Hoa",7,2,NULL,0,NULL,NULL,NULL,21.0082976,105.84047229999999,1,1,1,NULL,7,1,NULL,NULL,NULL,"2013-12-06 11:19:26",0,"2018-06-08 10:08:17"
515,"Vũ Thạnh",7,2,NULL,0,NULL,NULL,NULL,21.0265327,105.826371,1,1,1,NULL,7,1,NULL,NULL,NULL,"2013-12-06 11:19:34",0,"2018-06-08 10:08:17"
516,"Trịnh Hoài Đức",7,2,NULL,0,NULL,NULL,NULL,21.029202,105.83196459999999,1,1,1,NULL,7,1,NULL,NULL,NULL,"2013-12-06 11:19:40",0,"2018-06-08 10:08:17"
517,"Trung Liệt",7,2,NULL,0,NULL,NULL,NULL,21.0108448,105.82242500000007,1,1,1,NULL,7,1,NULL,NULL,NULL,"2013-12-06 11:19:50",0,"2018-06-08 10:08:17"
518,"Nguyễn Chí Thanh",7,2,NULL,0,NULL,NULL,NULL,21.0209831,105.80900680000002,1,1,1,NULL,7,1,NULL,NULL,NULL,"2013-12-18 16:29:24",0,"2018-06-08 10:08:17"
519,"Huỳnh Thúc Kháng",7,2,NULL,0,NULL,NULL,NULL,21.0176901,105.81269799999995,1,1,1,NULL,7,1,NULL,NULL,NULL,"2013-12-06 11:20:33",0,"2018-06-08 10:08:17"
520,"Khâm Thiên",7,2,NULL,0,NULL,NULL,NULL,21.019454,105.83857050000006,1,1,1,NULL,7,1,NULL,NULL,NULL,"2017-06-29 14:30:09",0,"2018-06-08 10:08:17"
521,"Khương Thượng",7,2,NULL,0,NULL,NULL,NULL,21.0030438,105.82829590000006,1,1,1,NULL,7,1,NULL,NULL,NULL,"2013-12-06 11:20:48",0,"2018-06-08 10:08:17"
522,"Văn Miếu",7,2,NULL,0,NULL,NULL,NULL,21.0265584,105.84003830000006,1,1,1,NULL,7,1,NULL,NULL,NULL,"2013-12-06 11:20:54",0,"2018-06-08 10:08:17"
523,Láng,7,2,NULL,0,NULL,NULL,NULL,21.013602,105.80717490000006,1,1,1,NULL,7,1,NULL,NULL,NULL,"2017-10-02 01:59:12",0,"2018-06-08 10:08:17"
524,"La Thành",7,2,NULL,0,NULL,NULL,NULL,21.0211749,105.8257949,1,1,1,NULL,7,1,NULL,NULL,NULL,"2013-12-06 11:21:07",0,"2018-06-08 10:08:17"
525,"Vũ Ngọc Phan",7,2,NULL,0,NULL,NULL,NULL,21.0140326,105.81104019999998,1,1,1,NULL,7,1,NULL,NULL,NULL,"2013-12-06 11:21:13",0,"2018-06-08 10:08:17"
526,"Giải Phóng",7,2,NULL,0,NULL,NULL,NULL,20.9976833,105.8413855,1,1,1,NULL,7,1,NULL,NULL,NULL,"2017-06-28 16:02:02",0,"2018-06-08 10:08:17"
527,"Chùa Láng",7,2,NULL,0,NULL,NULL,NULL,21.0235886,105.80490680000003,1,1,1,NULL,7,1,NULL,NULL,NULL,"2018-05-09 19:15:39",0,"2018-06-08 10:08:17"
528,"Đặng Trần Côn",7,2,NULL,0,NULL,NULL,NULL,21.0280499,105.83338830000002,1,1,1,NULL,7,1,NULL,NULL,NULL,"2013-12-06 11:21:34",0,"2018-06-08 10:08:17"
529,"Đặng Văn Ngữ",7,2,NULL,0,NULL,NULL,NULL,21.0112574,105.83093050000002,1,1,1,NULL,7,1,NULL,NULL,NULL,"2013-12-06 11:21:40",0,"2018-06-08 10:08:17"
530,"Trần Quý Cáp",7,2,NULL,0,NULL,NULL,NULL,21.0242507,105.83973659999992,1,1,1,NULL,7,1,NULL,NULL,NULL,"2013-12-06 11:21:46",0,"2018-06-08 10:08:17"
531,"Trần Hữu Tước",7,2,NULL,0,NULL,NULL,NULL,21.0140718,105.83030250000002,1,1,1,NULL,7,1,NULL,NULL,NULL,"2013-12-06 11:21:53",0,"2018-06-08 10:08:17"
532,"Tôn Thất Tùng",7,2,NULL,0,NULL,NULL,NULL,21.0043098,105.83041100000003,1,1,1,NULL,7,1,NULL,NULL,NULL,"2013-12-06 11:22:00",0,"2018-06-08 10:08:17"
533,"Tôn Đức Thắng",7,2,NULL,0,NULL,NULL,NULL,21.024133,105.83257550000008,1,1,1,NULL,7,1,NULL,NULL,NULL,"2013-12-06 11:22:05",0,"2018-06-08 10:08:17"
534,"Phan Phù Tiên",7,2,NULL,0,NULL,NULL,NULL,21.0286558,105.83404270000005,1,1,1,NULL,7,1,NULL,NULL,NULL,"2013-12-06 11:22:12",0,"2018-06-08 10:08:17"
535,"Thái Hà",7,2,NULL,0,NULL,NULL,NULL,21.016543,105.81504730000006,1,1,1,NULL,7,1,NULL,NULL,NULL,"2013-12-06 11:22:18",0,"2018-06-08 10:08:17"
536,"Tây Sơn",7,2,NULL,0,NULL,NULL,NULL,21.0084111,105.82379760000003,1,1,1,NULL,7,1,NULL,NULL,NULL,"2016-08-29 16:15:13",0,"2018-06-08 10:08:17"
537,"Quốc Tử Giám",7,2,NULL,0,NULL,NULL,NULL,21.0272556,105.83269919999998,1,1,1,NULL,7,1,NULL,NULL,NULL,"2013-12-06 11:22:30",0,"2018-06-08 10:08:17"
538,"Phương Mai",7,2,NULL,0,NULL,NULL,NULL,21.0012748,105.83930439999995,1,1,1,NULL,7,1,NULL,NULL,NULL,"2013-12-06 11:22:37",0,"2018-06-08 10:08:17"
539,"Pháo Đài Láng",7,2,NULL,0,NULL,NULL,NULL,21.0195573,105.8058873,1,1,1,NULL,7,1,NULL,NULL,NULL,"2013-12-06 11:22:46",0,"2018-06-08 10:08:17"
540,"Hoàng Tích Trí",7,2,NULL,0,NULL,NULL,NULL,21.0082054,105.83604689999993,1,1,1,NULL,7,1,NULL,NULL,NULL,"2013-12-06 11:22:52",0,"2018-06-08 10:08:17"
541,"Nguyễn Thái Học",7,2,NULL,0,NULL,NULL,NULL,21.0305898,105.8355937,1,1,1,NULL,7,1,NULL,NULL,NULL,"2013-12-06 11:23:03",0,"2018-06-08 10:08:17"
542,"Trường Chinh",7,2,NULL,0,NULL,NULL,NULL,21.0006181,105.82949639999993,1,1,1,NULL,7,1,NULL,NULL,NULL,"2013-12-06 11:23:09",0,"2018-06-08 10:08:17"
543,"Nguyễn Như Đổ",7,2,NULL,0,NULL,NULL,NULL,21.0266163,105.83919760000003,1,1,1,NULL,7,1,NULL,NULL,NULL,"2013-12-06 11:23:15",0,"2018-06-08 10:08:17"
544,"Hồ Giám",7,2,NULL,0,NULL,NULL,NULL,21.0265676,105.83517610000001,1,1,1,NULL,7,1,NULL,NULL,NULL,"2013-12-06 11:23:22",0,"2018-06-08 10:08:17"
545,"Phan Văn Trị",7,2,NULL,0,NULL,NULL,NULL,21.0255941,105.83231360000002,1,1,1,NULL,7,1,NULL,NULL,NULL,"2013-12-06 11:23:28",0,"2018-06-08 10:08:17"
546,"Đoàn Thị Điểm",7,2,NULL,0,NULL,NULL,NULL,21.0263432,105.83224110000003,1,1,1,NULL,7,1,NULL,NULL,NULL,"2013-12-06 11:23:35",0,"2018-06-08 10:08:17"
547,"Đông Các",7,2,NULL,0,NULL,NULL,NULL,21.0184307,105.82864589999997,1,1,1,NULL,7,1,NULL,NULL,NULL,"2013-12-06 11:23:41",0,"2018-06-08 10:08:17"
548,"Đông Tác",7,2,NULL,0,NULL,NULL,NULL,21.005962,105.83421840000005,1,1,1,NULL,7,1,NULL,NULL,NULL,"2013-12-06 11:23:48",0,"2018-06-08 10:08:17"
549,"Hàng Cháo",7,2,NULL,0,NULL,NULL,NULL,21.0298448,105.83470169999998,1,1,1,NULL,7,1,NULL,NULL,NULL,"2013-12-06 11:23:54",0,"2018-06-08 10:08:17"
550,"Hào Nam",7,2,NULL,0,NULL,NULL,NULL,21.0252288,105.82720569999992,1,1,1,NULL,7,1,NULL,NULL,NULL,"2017-06-29 14:24:44",0,"2018-06-08 10:08:17"
551,"Hoàng Cầu",7,2,NULL,0,NULL,NULL,NULL,21.0164966,105.82195000000002,1,1,1,NULL,7,1,NULL,NULL,NULL,"2013-12-06 11:24:05",0,"2018-06-08 10:08:17"
552,"Hoàng Ngọc Phách",7,2,NULL,0,NULL,NULL,NULL,21.0161988,105.81131340000002,1,1,1,NULL,7,1,NULL,NULL,NULL,"2013-12-06 11:24:12",0,"2018-06-08 10:08:17"
553,"Hồ Đắc Di",7,2,NULL,0,NULL,NULL,NULL,21.0119901,105.82981530000006,1,1,1,NULL,7,1,NULL,NULL,NULL,"2013-12-06 11:31:28",0,"2018-06-08 10:08:17"
554,"Nguyễn Phúc Lai",7,2,NULL,0,NULL,NULL,NULL,21.0210172,105.82190300000002,1,1,1,NULL,7,1,NULL,NULL,NULL,"2013-12-06 11:31:42",0,"2018-06-08 10:08:17"
555,"An Dương Vương",4,2,NULL,0,NULL,NULL,NULL,21.083285,105.81697450000001,1,1,1,NULL,4,1,NULL,NULL,NULL,"2013-12-06 11:31:49",0,"2018-06-08 10:08:17"
556,"Võng Thị",4,2,NULL,0,NULL,NULL,NULL,21.0514559,105.81097569999997,1,1,1,NULL,4,1,NULL,NULL,NULL,"2017-06-29 14:41:33",0,"2018-06-08 10:08:17"
557,"Phú Gia",4,2,NULL,0,NULL,NULL,NULL,21.0881464,105.8088047,1,1,1,NULL,4,1,NULL,NULL,NULL,"2013-12-06 11:32:08",0,"2018-06-08 10:08:17"
558,"Xuân La",4,2,NULL,0,NULL,NULL,NULL,21.0596756,105.80407960000002,1,1,1,NULL,4,1,NULL,NULL,NULL,"2013-12-06 11:32:14",0,"2018-06-08 10:08:17"
559,"Xuân Diệu",4,2,NULL,0,NULL,NULL,NULL,21.063963,105.82845020000002,1,1,1,NULL,4,1,NULL,NULL,NULL,"2013-12-06 11:32:22",0,"2018-06-08 10:08:17"
560,"Tô Ngọc Vân",4,2,NULL,0,NULL,NULL,NULL,21.0687952,105.82421610000006,1,1,1,NULL,4,1,NULL,NULL,NULL,"2017-06-29 17:43:53",0,"2018-06-08 10:08:17"
561,"Tây Hồ",4,2,NULL,0,NULL,NULL,NULL,21.0650633,105.82389319999993,1,1,1,NULL,4,1,NULL,NULL,NULL,"2013-12-06 11:32:35",0,"2018-06-08 10:08:17"
562,"Nguyễn Hoàng Tôn",4,2,NULL,0,NULL,NULL,NULL,21.0745282,105.79808400000002,1,1,1,NULL,4,1,NULL,NULL,NULL,"2013-12-06 11:32:59",0,"2018-06-08 10:08:17"
563,"Nghi Tàm",4,2,NULL,0,NULL,NULL,NULL,21.0559681,105.83650319999992,1,1,1,NULL,4,1,NULL,NULL,NULL,"2013-12-06 11:33:09",0,"2018-06-08 10:08:17"
564,"Lạc Long Quân",4,2,NULL,0,NULL,NULL,NULL,21.0593114,105.80554959999995,1,1,1,NULL,4,1,NULL,NULL,NULL,"2013-12-06 11:33:18",0,"2018-06-08 10:08:17"
565,"Đặng Thai Mai",4,2,NULL,0,NULL,NULL,NULL,21.060678,105.82374500000003,1,1,1,NULL,4,1,NULL,NULL,NULL,"2013-12-06 11:33:28",0,"2018-06-08 10:08:17"
566,Bưởi,4,2,NULL,0,NULL,NULL,NULL,21.0530438,105.81288510000002,1,1,1,NULL,4,1,NULL,NULL,NULL,"2013-12-06 11:33:36",0,"2018-06-08 10:08:17"
567,"Thụy Khuê",4,2,NULL,0,NULL,NULL,NULL,21.046133,105.82462659999999,1,1,1,NULL,4,1,NULL,NULL,NULL,"2013-12-06 11:33:45",0,"2018-06-08 10:08:17"
568,"Quảng An",4,2,NULL,0,NULL,NULL,NULL,21.0590335,105.82609430000002,1,1,1,NULL,4,1,NULL,NULL,NULL,"2013-12-06 11:33:52",0,"2018-06-08 10:08:17"
569,"Yên Phụ",4,2,NULL,0,NULL,NULL,NULL,21.0534309,105.83930439999995,1,1,1,NULL,4,1,NULL,NULL,NULL,"2013-12-06 11:34:06",0,"2018-06-08 10:08:17"
570,"An Dương",4,2,NULL,0,NULL,NULL,NULL,21.0549321,105.8394869,1,1,1,NULL,4,1,NULL,NULL,NULL,"2013-12-06 11:34:12",0,"2018-06-08 10:08:17"
571,"Yên Hoa",4,2,NULL,0,NULL,NULL,NULL,21.0218044,105.79087200000004,1,1,1,NULL,4,1,NULL,NULL,NULL,"2013-12-06 11:34:20",0,"2018-06-08 10:08:17"
572,"Thanh Niên",4,2,NULL,0,NULL,NULL,NULL,21.0461823,105.83657740000001,1,1,1,NULL,4,1,NULL,NULL,NULL,"2013-12-06 11:34:27",0,"2018-06-08 10:08:17"
573,"Cầu Giấy",6,2,NULL,0,NULL,NULL,NULL,21.0362368,105.79058250000003,1,1,1,NULL,6,1,NULL,NULL,NULL,"2017-10-02 12:25:13",0,"2018-06-08 10:08:17"
574,"Hoàng Sâm",6,2,NULL,0,NULL,NULL,NULL,21.0442517,105.79940390000002,1,1,1,NULL,6,1,NULL,NULL,NULL,"2013-12-06 11:35:37",0,"2018-06-08 10:08:17"
575,"Quan hoa",6,2,NULL,0,NULL,NULL,NULL,21.0367702,105.80114449999996,1,NULL,NULL,NULL,6,1,NULL,NULL,NULL,"2018-05-03 10:55:16",0,"2018-06-08 10:08:17"
576,"Đường 800A",6,2,NULL,0,NULL,NULL,NULL,21.0414661,105.80080739999994,1,1,1,NULL,6,1,NULL,NULL,NULL,"2017-09-28 10:59:57",0,"2018-06-08 10:08:17"
577,"Nguyễn Phong Sắc",6,2,NULL,0,NULL,NULL,NULL,21.0459007,105.79018940000003,1,1,1,NULL,6,1,NULL,NULL,NULL,"2013-12-06 11:35:56",0,"2018-06-08 10:08:17"
578,"Đông Quan",6,2,NULL,0,NULL,NULL,NULL,21.0397821,105.80480319999992,1,1,1,NULL,6,1,NULL,NULL,NULL,"2013-12-06 11:36:05",0,"2018-06-08 10:08:17"
579,"Quan Nhân",6,2,NULL,0,NULL,NULL,NULL,21.0035773,105.811061,1,1,1,NULL,6,1,NULL,NULL,NULL,"2017-06-23 10:18:53",0,"2018-06-08 10:08:17"
580,"Nhân Hòa",10,2,NULL,0,NULL,NULL,NULL,21.003067,105.80700609999997,1,1,1,NULL,10,1,NULL,NULL,NULL,"2014-03-04 08:24:54",0,"2018-06-08 10:08:17"
581,"Lê Văn Lương",6,2,NULL,0,NULL,NULL,NULL,21.0098682,105.81021970000006,1,1,1,NULL,6,1,NULL,NULL,NULL,"2013-12-06 11:36:21",0,"2018-06-08 10:08:17"
582,"Vũ Phạm Hàm",6,2,NULL,0,NULL,NULL,NULL,21.0150407,105.79687060000003,1,1,1,NULL,6,1,NULL,NULL,NULL,"2013-12-06 11:36:28",0,"2018-06-08 10:08:17"
583,"Nguyễn Khang",6,2,NULL,0,NULL,NULL,NULL,21.0221588,105.79969699999992,1,1,1,NULL,6,1,NULL,NULL,NULL,"2013-12-06 11:36:35",0,"2018-06-08 10:08:17"
584,"Hoa Bằng",6,2,NULL,0,NULL,NULL,NULL,21.0254765,105.79603440000005,1,1,1,NULL,6,1,NULL,NULL,NULL,"2013-12-06 11:36:42",0,"2018-06-08 10:08:17"
585,"Hoàng Đạo Thúy",6,2,NULL,0,NULL,NULL,NULL,21.0084831,105.80152900000007,1,1,1,NULL,6,1,NULL,NULL,NULL,"2013-12-06 11:36:49",0,"2018-06-08 10:08:17"
586,"Trần Duy Hưng",6,2,NULL,0,NULL,NULL,NULL,21.0118602,105.80082859999993,1,1,1,NULL,6,1,NULL,NULL,NULL,"2013-12-05 09:32:50",0,"2018-06-08 10:08:17"
587,"Nguyễn Văn Huyên",6,2,NULL,0,NULL,NULL,NULL,21.0428559,105.79753679999999,1,1,1,NULL,6,1,NULL,NULL,NULL,"2013-12-06 11:37:06",0,"2018-06-08 10:08:17"
588,"Phạm Hùng",6,2,NULL,0,NULL,NULL,NULL,21.0136939,105.78518550000001,1,1,1,NULL,6,1,NULL,NULL,NULL,"2017-07-11 17:45:20",0,"2018-06-08 10:08:17"
589,"Phạm Văn Đồng",6,2,NULL,0,NULL,NULL,NULL,21.0418631,105.78089610000006,1,1,1,NULL,6,1,NULL,NULL,NULL,"2013-12-06 11:37:54",0,"2018-06-08 10:08:17"
590,"Trần Cung",6,2,NULL,0,NULL,NULL,NULL,21.0503849,105.78981380000005,1,1,1,NULL,6,1,NULL,NULL,NULL,"2013-12-06 11:38:01",0,"2018-06-08 10:08:17"
591,"Nguyễn Khánh Toàn",6,2,NULL,0,NULL,NULL,NULL,21.0378511,105.80070290000003,1,1,1,NULL,6,1,NULL,NULL,NULL,"2013-12-06 11:38:08",0,"2018-06-08 10:08:17"
592,"Trần Đăng Ninh",6,2,NULL,0,NULL,NULL,NULL,21.0384538,105.79265429999998,1,1,1,NULL,6,1,NULL,NULL,NULL,"2013-12-06 11:38:14",0,"2018-06-08 10:08:17"
594,"Trần Quốc Hoàn",6,2,NULL,0,NULL,NULL,NULL,21.0408977,105.78908090000004,1,1,1,NULL,6,1,NULL,NULL,NULL,"2013-12-06 11:38:30",0,"2018-06-08 10:08:17"
595,"Trung Yên",6,2,NULL,0,NULL,NULL,NULL,21.0152567,105.80012409999995,1,1,1,NULL,6,1,NULL,NULL,NULL,"2013-12-06 11:38:45",0,"2018-06-08 10:08:17"
596,"Hồ Tùng Mậu",6,2,NULL,0,NULL,NULL,NULL,21.0383142,105.77156070000001,1,1,1,NULL,6,1,NULL,NULL,NULL,"2013-12-06 11:38:58",0,"2018-06-08 10:08:17"
597,"Hoàng Quốc Việt",6,2,NULL,0,NULL,NULL,NULL,21.0459148,105.7988421,1,1,1,NULL,6,1,NULL,NULL,NULL,"2013-12-06 11:39:08",0,"2018-06-08 10:08:17"
598,"Xuân Thủy",6,2,NULL,0,NULL,NULL,NULL,21.0366357,105.78530690000002,1,1,1,NULL,6,1,NULL,NULL,NULL,"2013-12-06 11:39:19",0,"2018-06-08 10:08:17"
599,"Chùa Hà",6,2,NULL,0,NULL,NULL,NULL,21.0364917,105.79497070000002,1,1,1,NULL,6,1,NULL,NULL,NULL,"2013-12-06 11:39:29",0,"2018-06-08 10:08:17"
600,"Dương Quảng Hàm",6,2,NULL,0,NULL,NULL,NULL,21.0367565,105.8017132,1,1,1,NULL,6,1,NULL,NULL,NULL,"2013-12-06 11:39:36",0,"2018-06-08 10:08:17"
601,"Hoàng Minh Giám",6,2,NULL,0,NULL,NULL,NULL,21.0084856,105.79539479999994,1,1,1,NULL,6,1,NULL,NULL,NULL,"2013-12-06 11:39:44",0,"2018-06-08 10:08:17"
602,"Duy Tân",6,2,NULL,0,NULL,NULL,NULL,21.0312927,105.78176009999993,1,1,1,NULL,6,1,NULL,NULL,NULL,"2013-12-06 11:39:50",0,"2018-06-08 10:08:17"
603,"Đỗ Quang",6,2,NULL,0,NULL,NULL,NULL,21.0106114,105.802457,1,1,1,NULL,6,1,NULL,NULL,NULL,"2013-12-06 13:54:52",0,"2018-06-08 10:08:17"
604,"Nguyễn Chánh",6,2,NULL,0,NULL,NULL,NULL,21.0089334,105.79528779999998,1,1,1,NULL,6,1,NULL,NULL,NULL,"2013-12-06 13:58:01",0,"2018-06-08 10:08:17"
605,"Trung Kính",6,2,NULL,0,NULL,NULL,NULL,21.0136561,105.79913510000006,1,1,1,NULL,6,1,NULL,NULL,NULL,"2013-12-06 13:58:13",0,"2018-06-08 10:08:17"
606,"Yên Hòa",6,2,NULL,0,NULL,NULL,NULL,21.0218044,105.79087200000004,1,1,1,NULL,6,1,NULL,NULL,NULL,"2013-12-06 13:58:40",0,"2018-06-08 10:08:17"
607,"Nguyễn Thị Định",6,2,NULL,0,NULL,NULL,NULL,21.0104108,105.80465670000001,1,1,1,NULL,6,1,NULL,NULL,NULL,"2017-07-24 16:57:56",0,"2018-06-08 10:08:17"
608,"Doãn Kế Thiện",6,2,NULL,0,NULL,NULL,NULL,21.0414084,105.77766539999993,1,1,1,NULL,6,1,NULL,NULL,NULL,"2013-12-06 13:58:55",0,"2018-06-08 10:08:17"
609,"Nghĩa Tân",6,2,NULL,0,NULL,NULL,NULL,21.0450408,105.79217960000005,1,1,1,NULL,6,1,NULL,NULL,NULL,"2018-05-11 17:41:27",0,"2018-06-08 10:08:17"
610,"Lạc Long Quân",6,2,NULL,0,NULL,NULL,NULL,21.0558571,105.80893990000004,1,1,1,NULL,6,1,NULL,NULL,NULL,"2013-12-06 13:59:11",0,"2018-06-08 10:08:17"
611,"Hoàng Ngân",6,2,NULL,0,NULL,NULL,NULL,21.0095509,105.80272300000001,1,1,1,NULL,6,1,NULL,NULL,NULL,"2013-12-06 13:59:20",0,"2018-06-08 10:08:17"
612,"Dương Đình Nghệ",6,2,NULL,0,NULL,NULL,NULL,21.0201966,105.78567129999999,1,1,1,NULL,6,1,NULL,NULL,NULL,"2013-12-06 13:59:30",0,"2018-06-08 10:08:17"
613,"Trần Tử Bình",6,2,NULL,0,NULL,NULL,NULL,21.0434599,105.79180999999994,1,1,1,NULL,6,1,NULL,NULL,NULL,"2013-12-06 13:59:38",0,"2018-06-08 10:08:17"
614,"Trần Quý Kiên",6,2,NULL,0,NULL,NULL,NULL,21.0375075,105.79191639999999,1,1,1,NULL,6,1,NULL,NULL,NULL,"2013-12-06 13:59:47",0,"2018-06-08 10:08:17"
615,"Phạm Tuấn Tài",6,2,NULL,0,NULL,NULL,NULL,21.0439596,105.78634090000003,1,1,1,NULL,6,1,NULL,NULL,NULL,"2013-12-06 13:59:54",0,"2018-06-08 10:08:17"
616,"Nguyễn Thị Thập",6,2,NULL,0,NULL,NULL,NULL,21.0063873,105.80191250000007,1,1,1,NULL,6,1,NULL,NULL,NULL,"2013-12-06 14:00:03",0,"2018-06-08 10:08:17"
617,"Phạm Thận Duật",6,2,NULL,0,NULL,NULL,NULL,21.0446706,105.7783604,1,1,1,NULL,6,1,NULL,NULL,NULL,"2013-12-06 14:00:15",0,"2018-06-08 10:08:17"
618,"Nguyễn Khả Trạc",6,2,NULL,0,NULL,NULL,NULL,21.0450133,105.77729750000003,1,1,1,NULL,6,1,NULL,NULL,NULL,"2013-12-06 14:08:33",0,"2018-06-08 10:08:17"
619,"Phan Văn Trường",6,2,NULL,0,NULL,NULL,NULL,21.0391404,105.78612240000007,1,1,1,NULL,6,1,NULL,NULL,NULL,"2013-12-06 14:08:48",0,"2018-06-08 10:08:17"
620,"Phùng Chí Kiên",6,2,NULL,0,NULL,NULL,NULL,21.0433459,105.80250139999998,1,1,1,NULL,6,1,NULL,NULL,NULL,"2013-12-06 14:08:55",0,"2018-06-08 10:08:17"
621,"Tô Hiệu",6,2,NULL,0,NULL,NULL,NULL,21.042043,105.7925543,1,1,1,NULL,6,1,NULL,NULL,NULL,"2013-12-06 14:14:05",0,"2018-06-08 10:08:17"
622,"Trần Bình",6,2,NULL,0,NULL,NULL,NULL,21.0298589,105.781609,1,1,1,NULL,6,1,NULL,NULL,NULL,"2014-05-15 17:26:30",0,"2018-06-08 10:08:17"
623,"Mai Dịch",6,2,NULL,0,NULL,NULL,NULL,21.0395659,105.77407119999998,1,1,1,NULL,6,1,NULL,NULL,NULL,"2013-12-06 14:14:26",0,"2018-06-08 10:08:17"
624,"Trần Thái Tông",6,2,NULL,0,NULL,NULL,NULL,21.0245762,105.78926569999999,1,1,1,NULL,6,1,NULL,NULL,NULL,"2013-12-06 14:14:50",0,"2018-06-08 10:08:17"
625,"Nguyễn Tuân",10,2,NULL,0,NULL,NULL,NULL,20.9973789,105.80408190000003,1,1,1,NULL,10,1,NULL,NULL,NULL,"2013-12-06 14:15:00",0,"2018-06-08 10:08:17"
626,"Lê Văn Lương",10,2,NULL,0,NULL,NULL,NULL,21.0064173,105.80607529999997,1,1,1,NULL,10,1,NULL,NULL,NULL,"2013-12-06 14:15:18",0,"2018-06-08 10:08:17"
627,"Hoàng Minh Giám",10,2,NULL,0,NULL,NULL,NULL,21.0047375,105.79821330000004,1,1,1,NULL,10,1,NULL,NULL,NULL,"2013-12-06 14:15:27",0,"2018-06-08 10:08:17"
628,"Nguyễn Ngọc Nại",10,2,NULL,0,NULL,NULL,NULL,20.9994572,105.82496500000002,1,1,1,NULL,10,1,NULL,NULL,NULL,"2013-12-06 14:18:12",0,"2018-06-08 10:08:17"
629,"Lê Trọng Tấn",10,2,NULL,0,NULL,NULL,NULL,20.9938628,105.83144219999997,1,1,1,NULL,10,1,NULL,NULL,NULL,"2013-12-06 14:18:51",0,"2018-06-08 10:08:17"
630,"Giải Phóng",10,2,NULL,0,NULL,NULL,NULL,20.9976833,105.8413855,1,1,1,NULL,10,1,NULL,NULL,NULL,"2017-06-28 16:02:08",0,"2018-06-08 10:08:17"
631,"Nguyễn Trãi",10,2,NULL,0,NULL,NULL,NULL,20.9916609,105.80312090000007,1,1,1,NULL,10,1,NULL,NULL,NULL,"2017-06-29 14:34:25",0,"2018-06-08 10:08:17"
632,"Phương Liệt",10,2,NULL,0,NULL,NULL,NULL,20.9925823,105.83930439999995,1,1,1,NULL,10,1,NULL,NULL,NULL,"2013-12-06 14:19:34",0,"2018-06-08 10:08:17"
633,"Nguyễn Văn Trỗi",10,2,NULL,0,NULL,NULL,NULL,20.9872809,105.83848979999993,1,1,1,NULL,10,1,NULL,NULL,NULL,"2013-12-06 14:20:40",0,"2018-06-08 10:08:17"
634,"Khương Đình",10,2,NULL,0,NULL,NULL,NULL,20.9887356,105.8187558,1,1,1,NULL,10,1,NULL,NULL,NULL,"2013-12-06 14:35:38",0,"2018-06-08 10:08:17"
635,"Vũ Hữu",10,2,NULL,0,NULL,NULL,NULL,20.9932875,105.79609729999993,1,1,1,NULL,10,1,NULL,NULL,NULL,"2013-12-06 14:35:47",0,"2018-06-08 10:08:17"
637,"Khương Hạ",10,2,NULL,0,NULL,NULL,NULL,20.9921416,105.81617919999997,1,1,1,NULL,10,1,NULL,NULL,NULL,"2013-12-06 14:36:05",0,"2018-06-08 10:08:17"
638,"Hoàng Văn Thái",10,2,NULL,0,NULL,NULL,NULL,20.9966659,105.82861170000001,1,1,1,NULL,10,1,NULL,NULL,NULL,"2013-12-06 14:36:13",0,"2018-06-08 10:08:17"
639,"Vương Thừa Vũ",10,2,NULL,0,NULL,NULL,NULL,20.9999817,105.82188659999997,1,1,1,NULL,10,1,NULL,NULL,NULL,"2013-12-06 14:36:24",0,"2018-06-08 10:08:17"
640,"Cù Chính Lan",10,2,NULL,0,NULL,NULL,NULL,20.9983879,105.82346940000002,1,1,1,NULL,10,1,NULL,NULL,NULL,"2013-12-06 14:36:33",0,"2018-06-08 10:08:17"
641,"Thượng Đình",10,2,NULL,0,NULL,NULL,NULL,21.0006046,105.8158204,1,1,1,NULL,10,1,NULL,NULL,NULL,"2013-12-06 14:36:42",0,"2018-06-08 10:08:17"
642,"Bùi Xương Trạch",10,2,NULL,0,NULL,NULL,NULL,20.9855154,105.81921549999993,1,1,1,NULL,10,1,NULL,NULL,NULL,"2014-02-11 16:35:16",0,"2018-06-08 10:08:17"
643,"Cự Lộc",10,2,NULL,0,NULL,NULL,NULL,21.002933,105.81170799999995,1,1,1,NULL,10,1,NULL,NULL,NULL,"2013-12-06 14:37:01",0,"2018-06-08 10:08:17"
644,"Nguyễn Thị Thập",10,2,NULL,0,NULL,NULL,NULL,21.0062232,105.80182650000006,1,1,1,NULL,10,1,NULL,NULL,NULL,"2013-12-06 14:37:07",0,"2018-06-08 10:08:17"
645,"Triều Khúc",10,2,NULL,0,NULL,NULL,NULL,20.9842457,105.7998043,1,1,1,NULL,10,1,NULL,NULL,NULL,"2013-12-06 14:37:17",0,"2018-06-08 10:08:17"
647,"Hoàng Đạo Thành",10,2,NULL,0,NULL,NULL,NULL,20.9831432,105.81304150000005,1,1,1,NULL,10,1,NULL,NULL,NULL,"2013-12-06 14:37:26",0,"2018-06-08 10:08:17"
648,"Nguyễn Quý Đức",10,2,NULL,0,NULL,NULL,NULL,20.9926431,105.798903,1,1,1,NULL,10,1,NULL,NULL,NULL,"2013-12-06 14:37:36",0,"2018-06-08 10:08:17"
649,"Quan Nhân",10,2,NULL,0,NULL,NULL,NULL,21.0061369,105.81484620000003,1,1,1,NULL,10,1,NULL,NULL,NULL,"2013-12-06 14:37:45",0,"2018-06-08 10:08:17"
650,"Nguyễn Xiển",10,2,NULL,0,NULL,NULL,NULL,20.9794724,105.8123587,1,1,1,NULL,10,1,NULL,NULL,NULL,"2013-12-06 14:37:56",0,"2018-06-08 10:08:17"
651,"Chính Kinh",10,2,NULL,0,NULL,NULL,NULL,20.9993322,105.81138480000004,1,1,1,NULL,10,1,NULL,NULL,NULL,"2013-12-06 14:43:07",0,"2018-06-08 10:08:17"
652,"Hạ Đình",10,2,NULL,0,NULL,NULL,NULL,20.9866719,105.80994989999999,1,1,1,NULL,10,1,NULL,NULL,NULL,"2013-12-06 14:43:17",0,"2018-06-08 10:08:17"
653,"Vũ Trọng Phụng",10,2,NULL,0,NULL,NULL,NULL,20.9998224,105.80799200000001,1,1,1,NULL,10,1,NULL,NULL,NULL,"2013-12-06 14:43:28",0,"2018-06-08 10:08:17"
654,"Nguyễn Huy Tưởng",10,2,NULL,0,NULL,NULL,NULL,20.9964569,105.80269090000002,1,1,1,NULL,10,1,NULL,NULL,NULL,"2013-12-06 14:43:44",0,"2018-06-08 10:08:17"
655,"Lê Văn Thiêm",10,2,NULL,0,NULL,NULL,NULL,21.0010913,105.80365870000003,1,1,1,NULL,10,1,NULL,NULL,NULL,"2013-12-06 14:43:52",0,"2018-06-08 10:08:17"
656,"Khương Trung",10,2,NULL,0,NULL,NULL,NULL,20.9971504,105.82169109999995,1,1,1,NULL,10,1,NULL,NULL,NULL,"2013-12-06 14:44:00",0,"2018-06-08 10:08:17"
657,"Ngụy Như Kon Tum",10,2,NULL,0,NULL,NULL,NULL,21.0031524,105.80653830000006,1,1,1,NULL,10,1,NULL,NULL,NULL,"2013-12-06 14:44:14",0,"2018-06-08 10:08:17"
658,"Phan Đình Giót",10,2,NULL,0,NULL,NULL,NULL,20.9911662,105.83944199999996,1,1,1,NULL,10,1,NULL,NULL,NULL,"2013-12-06 14:44:23",0,"2018-06-08 10:08:17"
659,"Nguyễn Ngọc Vũ",10,2,NULL,0,NULL,NULL,NULL,21.0055435,105.81626240000003,1,1,1,NULL,10,1,NULL,NULL,NULL,"2013-12-06 14:44:32",0,"2018-06-08 10:08:17"
660,"Nguyễn Viết Xuân",10,2,NULL,0,NULL,NULL,NULL,20.9976583,105.82700729999999,1,1,1,NULL,10,1,NULL,NULL,NULL,"2013-12-06 14:44:41",0,"2018-06-08 10:08:17"
661,"Lương Thế Vinh",10,2,NULL,0,NULL,NULL,NULL,20.9946208,105.79049970000005,1,1,1,NULL,10,1,NULL,NULL,NULL,"2013-12-06 14:46:56",0,"2018-06-08 10:08:17"
662,"Kim Giang",10,2,NULL,0,NULL,NULL,NULL,20.9828413,105.81215129999998,1,1,1,NULL,10,1,NULL,NULL,NULL,"2013-12-06 14:47:06",0,"2018-06-08 10:08:17"
663,"Hoàng Ngân",10,2,NULL,0,NULL,NULL,NULL,21.0095509,105.80272300000001,1,1,1,NULL,10,1,NULL,NULL,NULL,"2013-12-06 15:03:32",0,"2018-06-08 10:08:17"
664,"Thanh Lân - Thanh Trì",9,2,NULL,0,NULL,NULL,NULL,20.9905612,105.8885841,1,NULL,NULL,NULL,9,1,NULL,NULL,NULL,"2017-09-20 17:43:34",0,"2018-06-08 10:08:17"
665,"Giáp Bát",9,2,NULL,0,NULL,NULL,NULL,20.9842661,105.84297400000003,1,1,1,NULL,9,1,NULL,NULL,NULL,"2013-12-06 15:03:49",0,"2018-06-08 10:08:17"
666,"Ngọc Hồi",9,2,NULL,0,NULL,NULL,NULL,20.9514029,105.8440286,1,1,1,NULL,9,1,NULL,NULL,NULL,"2014-04-28 16:14:48",0,"2018-06-08 10:08:17"
667,"Nghiêm Xuân Yêm",9,2,NULL,0,NULL,NULL,NULL,20.9724,105.82059000000004,1,1,1,NULL,9,1,NULL,NULL,NULL,"2013-12-06 15:04:07",0,"2018-06-08 10:08:17"
668,"Nguyễn Đức Cảnh",9,2,NULL,0,NULL,NULL,NULL,20.9869084,105.85303520000002,1,1,1,NULL,9,1,NULL,NULL,NULL,"2013-12-06 15:04:16",0,"2018-06-08 10:08:17"
669,"Nguyễn Xiển",9,2,NULL,0,NULL,NULL,NULL,20.9708169,105.82528000000002,1,1,1,NULL,9,1,NULL,NULL,NULL,"2013-12-06 15:04:26",0,"2018-06-08 10:08:17"
670,"Vĩnh Hoàng",9,2,NULL,0,NULL,NULL,NULL,20.9844662,105.86756250000008,1,1,1,NULL,9,1,NULL,NULL,NULL,"2013-12-06 15:04:35",0,"2018-06-08 10:08:17"
671,"Lương Khánh Thiện",9,2,NULL,0,NULL,NULL,NULL,20.9849907,105.85147600000005,1,1,1,NULL,9,1,NULL,NULL,NULL,"2013-12-06 15:04:52",0,"2018-06-08 10:08:17"
672,"Ngũ Nhạc",9,2,NULL,0,NULL,NULL,NULL,20.9894489,105.89093849999995,1,1,1,NULL,9,1,NULL,NULL,NULL,"2017-09-19 09:30:35",0,"2018-06-08 10:08:17"
673,"Trần Điền",9,2,NULL,0,NULL,NULL,NULL,20.989698,105.83035889999996,1,1,1,NULL,9,1,NULL,NULL,NULL,"2013-12-06 15:05:01",0,"2018-06-08 10:08:17"
674,"Định Công Hạ",9,2,NULL,0,NULL,NULL,NULL,20.9808944,105.83269919999998,1,1,1,NULL,9,1,NULL,NULL,NULL,"2013-12-06 15:05:13",0,"2018-06-08 10:08:17"
675,"Định Công",9,2,NULL,0,NULL,NULL,NULL,20.9831371,105.83196529999998,1,1,1,NULL,9,1,NULL,NULL,NULL,"2013-12-06 15:05:19",0,"2018-06-08 10:08:17"
676,"Đại Kim",9,2,NULL,0,NULL,NULL,NULL,20.9739692,105.82169109999995,1,1,1,NULL,9,1,NULL,NULL,NULL,"2013-12-06 15:05:38",0,"2018-06-08 10:08:17"
677,"Hồng Quang",9,2,NULL,0,NULL,NULL,NULL,20.9742797,105.8327792,1,1,1,NULL,9,1,NULL,NULL,NULL,"2013-12-06 15:06:01",0,"2018-06-08 10:08:17"
678,"Nguyễn Công Thái",9,2,NULL,0,NULL,NULL,NULL,20.9754653,105.83513440000002,1,1,1,NULL,9,1,NULL,NULL,NULL,"2013-12-06 15:06:10",0,"2018-06-08 10:08:17"
679,"Linh Đàm",9,2,NULL,0,NULL,NULL,NULL,20.9713768,105.82727299999999,1,1,1,NULL,9,1,NULL,NULL,NULL,"2013-12-02 16:03:44",0,"2018-06-08 10:08:17"
680,"Tương Mai",9,2,NULL,0,NULL,NULL,NULL,20.9885702,105.85104750000005,1,1,1,NULL,9,1,NULL,NULL,NULL,"2013-12-02 16:03:52",0,"2018-06-08 10:08:17"
681,"Tân Mai",9,2,NULL,0,NULL,NULL,NULL,20.983687,105.84815600000002,1,1,1,NULL,9,1,NULL,NULL,NULL,"2013-12-02 16:03:58",0,"2018-06-08 10:08:17"
682,"Thanh Lân",9,2,NULL,0,NULL,NULL,NULL,20.9905612,105.8885841,1,1,1,NULL,9,1,NULL,NULL,NULL,"2017-09-20 17:43:52",0,"2018-06-08 10:08:17"
683,"Đại Từ",9,2,NULL,0,NULL,NULL,NULL,20.9722019,105.83269919999998,1,1,1,NULL,9,1,NULL,NULL,NULL,"2013-12-02 16:04:36",0,"2018-06-08 10:08:17"
684,"Hoàng Văn Thụ",2,2,NULL,0,NULL,NULL,NULL,21.0385646,105.83896570000002,1,1,1,NULL,2,1,NULL,NULL,NULL,"2014-04-26 15:05:40",0,"2018-06-08 10:08:17"
685,"Bắc Linh Đàm",9,2,NULL,0,NULL,NULL,NULL,20.970516,105.82632100000001,1,1,1,NULL,9,1,NULL,NULL,NULL,"2013-12-02 16:04:53",0,"2018-06-08 10:08:17"
686,"Hoàng Mai",9,2,NULL,0,NULL,NULL,NULL,20.9927053,105.85066460000007,1,1,1,NULL,9,1,NULL,NULL,NULL,"2013-12-02 16:05:02",0,"2018-06-08 10:08:17"
687,"Vĩnh Hưng",9,2,NULL,0,NULL,NULL,NULL,20.9892354,105.87453589999996,1,1,1,NULL,9,1,NULL,NULL,NULL,"2013-12-02 16:05:12",0,"2018-06-08 10:08:17"
688,"Giáp Nhị",9,2,NULL,0,NULL,NULL,NULL,20.9751561,105.84737769999992,1,1,1,NULL,9,1,NULL,NULL,NULL,"2013-12-02 16:05:22",0,"2018-06-08 10:08:17"
689,"Giải Phóng",9,2,NULL,0,NULL,NULL,NULL,20.9869604,105.84116670000003,1,NULL,NULL,NULL,9,1,NULL,NULL,NULL,"2017-07-24 16:55:40",0,"2018-06-08 10:08:17"
690,"Nguyễn Hữu Thọ",9,2,NULL,0,NULL,NULL,NULL,20.9709922,105.83528460000002,1,1,1,NULL,9,1,NULL,NULL,NULL,"2013-12-02 16:05:39",0,"2018-06-08 10:08:17"
691,"Tây Trà",9,2,NULL,0,NULL,NULL,NULL,20.9773672,105.88367240000002,1,1,1,NULL,9,1,NULL,NULL,NULL,"2013-12-02 16:05:48",0,"2018-06-08 10:08:17"
692,"Thanh Đàm",9,2,NULL,0,NULL,NULL,NULL,20.9933654,105.88925440000003,1,1,1,NULL,9,1,NULL,NULL,NULL,"2013-12-02 16:05:59",0,"2018-06-08 10:08:17"
